name,County,SUB_COUNTY,Ward,long,lat,county
BAKWANIN,Baringo,Baringo Central,Sacho,35.79708,0.40955,Baringo
BEKIBON,Baringo,Baringo South,Marigat,35.88406,0.3364,Baringo
BOKORIN,Baringo,Baringo Central,Kapropita,35.77177,0.53218,Baringo
BOROWONIN,Baringo,Baringo Central,Kapropita,35.77864,0.44487,Baringo
BOSIN,Baringo,Baringo Central,Sacho,35.79545,0.43809,Baringo
BUIWON,Baringo,Baringo South,Marigat,35.90716,0.3668,Baringo
CHESONGO,Baringo,Baringo Central,Kabarnet,35.67543,0.55089,Baringo
EITUI,Baringo,Baringo Central,Tenges,35.740339,0.218567,Baringo
EMOM,Baringo,Baringo Central,Tenges,35.74721,0.29077,Baringo
ERON,Baringo,Baringo Central,Kabarnet,35.67539,0.48551,Baringo
ILLIAGAT,Baringo,Baringo South,Marigat,35.83417,0.30749,Baringo
KABARBARMA,Baringo,Baringo Central,Ewalel/ Chapchap,35.81746,0.43149,Baringo
KABARNET DEAF BLIND SP,Baringo,Baringo Central,Kabarnet,35.73776,0.5008,Baringo
KABASIS D B,Baringo,Baringo Central,Sacho,35.78729,0.43688,Baringo
KABIRMOI,Baringo,Baringo Central,Sacho,35.78441,0.42125,Baringo
KABIRMET,Baringo,Baringo Central,Ewalel/ Chapchap,35.82469,0.58723,Baringo
KABOCHONY,Baringo,Baringo Central,Ewalel/ Chapchap,35.79967,0.44333,Baringo
KAISO,Baringo,Baringo Central,Tenges,35.79731,0.30241,Baringo
KAKWANE,Baringo,Baringo Central,Kabarnet,35.62756,0.52323,Baringo
KAMGOIN,Baringo,Baringo Central,Kapropita,35.76201,0.4706,Baringo
KAMWEN,Baringo,Baringo Central,Kabarnet,35.75023,0.55332,Baringo
KAPCHEMON,Baringo,Baringo Central,Kabarnet,35.74422,0.52884,Baringo
KAPCHEREBET,Baringo,Baringo Central,Kapropita,35.7192,0.45235,Baringo
KAPCHOMUSO,Baringo,Baringo Central,Kabarnet,35.74316,0.54066,Baringo
KAPKATIT,Baringo,Baringo Central,Tenges,35.78163,0.26617,Baringo
KAPKELELWA,Baringo,Baringo Central,Sacho,35.72099,0.37685,Baringo
KAPKIAI,Baringo,Baringo Central,Ewalel/ Chapchap,35.80483,0.42841,Baringo
KAPKOIBAI,Baringo,Baringo Central,Kabarnet,35.85264,0.54361,Baringo
KAPKOMOI,Baringo,Baringo Central,Ewalel/ Chapchap,35.79286,0.50313,Baringo
KAPKONY,Baringo,Baringo Central,Kapropita,35.76435,0.44721,Baringo
KAPKUT,Baringo,Baringo Central,Kapropita,35.74121,0.46229,Baringo
KAPLEL,Baringo,Baringo Central,Sacho,35.76846,0.35463,Baringo
KAPLOTEN,Baringo,Baringo Central,Sacho,35.7675,0.37023,Baringo
KAPROPITA,Baringo,Baringo Central,Kapropita,35.75276,0.48976,Baringo
KAPSIGORIAN,Baringo,Baringo Central,Kapropita,35.70722,0.47748,Baringo
KAPSOGO,Baringo,Baringo Central,Kapropita,35.78089,0.45486,Baringo
KAPSOO,Baringo,Baringo Central,Kapropita,35.77038,0.46873,Baringo
KAPTARA,Baringo,Baringo Central,Kabarnet,35.64617,0.55233,Baringo
KAPTICH,Baringo,Baringo Central,Sacho,35.79677,0.3605,Baringo
KAPTIEN,Baringo,Baringo Central,Kapropita,35.72517,0.42979,Baringo
KAPTIMBOR,Baringo,Baringo Central,Kabarnet,35.73221,0.49954,Baringo
KAPTOROKWO,Baringo,Baringo Central,Ewalel/ Chapchap,35.79478,0.44964,Baringo
KAPTUMO,Baringo,Baringo Central,Ewalel/ Chapchap,35.80013,0.57011,Baringo
KAPYEMIT,Baringo,Baringo Central,Kabarnet,36.040712,0.16532,Baringo
KASERET,Baringo,Baringo Central,Tenges,35.76924,0.2718,Baringo
KASORE,Baringo,Baringo Central,Ewalel/ Chapchap,35.80485,0.52408,Baringo
KESETAN,Baringo,Baringo Central,Sacho,35.77491,0.37283,Baringo
KETINDUI,Baringo,Baringo Central,Kabarnet,35.71393,0.52118,Baringo
KEWAMOI,Baringo,Baringo Central,Sacho,35.7252,0.49842,Baringo
KIBOI,Baringo,Baringo Central,Kapropita,35.75362,0.47481,Baringo
KIBOINO,Baringo,Baringo Central,Kabarnet,35.68215,0.46358,Baringo
KIMAGOK,Baringo,Baringo Central,Kapropita,35.7762,0.51049,Baringo
KIMOSO,Baringo,Baringo Central,Kabarnet,35.702349,0.500302,Baringo
KIMOTANY,Baringo,Baringo Central,Sacho,35.74111,0.37055,Baringo
KIPKAECH B D,Baringo,Baringo Central,Ewalel/ Chapchap,35.81059,0.48076,Baringo
KIPKUTUNY,Baringo,Baringo Central,Tenges,35.78509,0.3281,Baringo
KIPLABAL,Baringo,Baringo Central,Kabarnet,35.68861,0.45514,Baringo
KIPONJOS,Baringo,Baringo Central,Sacho,35.80484,0.39737,Baringo
KIPSOIT,Baringo,Baringo Central,Kabarnet,35.6496,0.51791,Baringo
KIPTILIT,Baringo,Baringo Central,Kapropita,35.76544,0.49155,Baringo
KISOK,Baringo,Baringo Central,Kapropita,35.70509,0.407,Baringo
KISONEI,Baringo,Baringo Central,Tenges,35.718,0.25705,Baringo
KITUMBEI,Baringo,Baringo Central,Ewalel/ Chapchap,35.79038,0.47396,Baringo
KITURO D/B,Baringo,Baringo Central,Ewalel/ Chapchap,35.78526,0.48164,Baringo
KONOIYO,Baringo,Baringo Central,Sacho,35.76182,0.42609,Baringo
KOYORUS,Baringo,Baringo Central,Sacho,35.78523,0.40097,Baringo
KURUMBOPSOO,Baringo,Baringo Central,Kapropita,35.67633,0.42538,Baringo
LELBATAI,Baringo,Baringo Central,Tenges,35.750964,0.252957,Baringo
LELGUT,Baringo,Baringo Central,Tenges,35.74535,0.32573,Baringo
MAGONOI,Baringo,Baringo Central,Kabarnet,35.68308,0.51468,Baringo
MANAACH,Baringo,Baringo Central,Ewalel/ Chapchap,35.79068,0.5415,Baringo
MBECHOT,Baringo,Baringo Central,Tenges,36.101417,0.379455,Baringo
MOGORWA,Baringo,Baringo Central,Tenges,35.71901,0.31206,Baringo
MOI TEACHERS,Baringo,Baringo Central,Ewalel/ Chapchap,35.786592,0.545966,Baringo
MOI TIMOWO,Baringo,Baringo Central,Kabarnet,35.73756,0.56724,Baringo
MUMOL,Baringo,Baringo Central,Kapropita,35.74739,0.48211,Baringo
NGETMOI,Baringo,Baringo Central,Ewalel/ Chapchap,35.81902,0.41251,Baringo
NGOLONG,Baringo,Baringo Central,Kabarnet,35.76288,0.54639,Baringo
OCHII,Baringo,Baringo Central,Tenges,35.77181,0.30392,Baringo
OROKWO,Baringo,Baringo Central,Kabarnet,35.75594,0.56685,Baringo
PEMWAI,Baringo,Baringo Central,Kabarnet,35.76998,0.57319,Baringo
RIWO,Baringo,Baringo Central,Kapropita,35.76592,0.51267,Baringo
ROSOBET,Baringo,Baringo Central,Ewalel/ Chapchap,35.77798,0.56659,Baringo
SAIMET,Baringo,Baringo Central,Sacho,35.73462,0.38838,Baringo
SALAWA,Baringo,Baringo Central,Kabarnet,35.66248,0.49929,Baringo
SANGARAU,Baringo,Baringo Central,Tenges,35.7788,0.28121,Baringo
SEGUTON HILL,Baringo,Baringo Central,Kabarnet,35.7467,0.50741,Baringo
SENETWO,Baringo,Baringo South,Marigat,35.82559,0.57869,Baringo
SERETON,Baringo,Baringo South,Marigat,35.84738,0.32472,Baringo
SERETUNIN,Baringo,Baringo Central,Ewalel/ Chapchap,35.78876,0.5558,Baringo
SESYA,Baringo,Baringo Central,Ewalel/ Chapchap,35.81004,0.49656,Baringo
SIGINWO,Baringo,Baringo South,Marigat,35.81574,0.31535,Baringo
SIGOWO,Baringo,Baringo Central,Sacho,35.79627,0.34246,Baringo
SIRONOI,Baringo,Baringo Central,Kabarnet,35.70156,0.47466,Baringo
SIRWET,Baringo,Baringo Central,Sacho,35.8238,0.36248,Baringo
SOGON,Baringo,Baringo Central,Kabarnet,35.81521,0.56248,Baringo
SOROK,Baringo,Baringo Central,Tenges,35.77115,0.23038,Baringo
SOSION,Baringo,Baringo Central,Sacho,35.76475,0.40874,Baringo
TABARIN,Baringo,Baringo Central,Tenges,35.81187,0.34187,Baringo
TALAI,Baringo,Baringo Central,Ewalel/ Chapchap,35.81288,0.58701,Baringo
TANDUI,Baringo,Baringo Central,Sacho,35.78914,0.38037,Baringo
TARTAR,Baringo,Baringo Central,Sacho,35.75088,0.43458,Baringo
TEBEI,Baringo,Baringo Central,Tenges,35.83951,0.27675,Baringo
TENGES,Baringo,Baringo Central,Tenges,35.80015,0.30935,Baringo
TEREBEN,Baringo,Baringo Central,Kabarnet,35.75332,0.52741,Baringo
TILELON,Baringo,Baringo Central,Kapropita,35.76472,0.50091,Baringo
TIMBOIYWO,Baringo,Baringo Central,Sacho,35.79676,0.42594,Baringo
TINOMOI,Baringo,Baringo Central,Tenges,35.86762,0.29075,Baringo
TULUONGOI,Baringo,Baringo Central,Tenges,35.80886,0.27453,Baringo
TURKWO,Baringo,Baringo Central,Kapropita,35.72898,0.47496,Baringo
AIC VISA OSHWAL,Baringo,Baringo Central,Kabarnet,35.74253,0.49244,Baringo
YEMO,Baringo,Baringo Central,Kapropita,35.75107,0.45747,Baringo
KINGS HILL,Baringo,Baringo Central,Ewalel/ Chapchap,35.7331,0.5064,Baringo
SDA KABARNET ACADEMY,Baringo,Baringo Central,Kapropita,35.73908,0.49042,Baringo
SEREMWAI ACADEMY,Baringo,Baringo Central,Tenges,35.8009,0.31324,Baringo
ST JOSEPHS CATHOLIC KITURO,Baringo,Baringo Central,Ewalel/ Chapchap,35.78431,0.48439,Baringo
KOKORWONIN,Baringo,Baringo Central,Sacho,35.75628,0.39287,Baringo
KATUNOI,Baringo,Baringo Central,Sacho,35.69645,0.38248,Baringo
KAPTALAM,Baringo,Baringo Central,Ewalel/ Chapchap,35.78092,0.54215,Baringo
KABARNET TOWN ACADEMY,Baringo,Baringo Central,Kabarnet,35.74743,0.484082,Baringo
CHRIST DOMINION,Baringo,Baringo Central,Kabarnet,35.726504,0.495886,Baringo
A.I.C. EBENEZER ACADEMY,Baringo,Baringo Central,Kabarnet,35.766276,0.553188,Baringo
WARWA ACADEMY,Baringo,Baringo Central,Kabarnet,35.74139,0.49104,Baringo
AIYEBO,Baringo,Baringo North,Saimo/ Kipsaraman,35.80838,0.66287,Baringo
AKOROYAN,Baringo,Baringo North,Saimo/Soi,35.98308,0.63338,Baringo
ATIAR,Baringo,Baringo North,Bartabwa,35.78904,0.80125,Baringo
AYATYA,Baringo,Baringo North,Barwessa,35.656744,0.893036,Baringo
BARBARCHUN,Baringo,Baringo North,Bartabwa,35.82191,0.77551,Baringo
BARKEBO,Baringo,Baringo North,Saimo/ Kipsaraman,35.81955,0.74254,Baringo
BARKETIEW,Baringo,Baringo North,Bartabwa,35.855365,0.791708,Baringo
BARTABWA D&B,Baringo,Baringo North,Bartabwa,35.80915,0.84124,Baringo
BARTARAGON,Baringo,Baringo North,Kabartonjo,35.77288,0.63752,Baringo
BARTOGO,Baringo,Baringo North,Barwessa,35.698372,0.659225,Baringo
BARTOLIMO,Baringo,Baringo North,Saimo/ Kipsaraman,35.81947,0.68465,Baringo
BARTUM,Baringo,Baringo North,Saimo/Soi,35.88346,0.59346,Baringo
BARWESSA,Baringo,Baringo North,Barwessa,35.698334,0.717053,Baringo
BIRETWONIN,Baringo,Baringo North,Saimo/Soi,35.86553,0.67549,Baringo
BIRINGWENY,Baringo,Baringo North,Saimo/Soi,35.82934,0.61666,Baringo
BOIN,Baringo,Baringo North,Saimo/ Kipsaraman,35.81258,0.64581,Baringo
BORUIYO,Baringo,Baringo North,Bartabwa,35.82143,0.847753,Baringo
BOSSEI,Baringo,Baringo North,Kabartonjo,35.78587,0.68103,Baringo
CHAMBAI,Baringo,Baringo North,Saimo/ Kipsaraman,35.81384,0.69078,Baringo
CHAPIN,Baringo,Baringo North,Bartabwa,35.83308,0.77891,Baringo
CHEBARSIAT,Baringo,Baringo North,Saimo/Soi,35.9251,0.57853,Baringo
CHEBUGAR,Baringo,Baringo North,Barwessa,35.661501,0.758031,Baringo
CHEMINTANY,Baringo,Baringo North,Barwessa,35.690726,0.899441,Baringo
CHEMURA,Baringo,Baringo North,Barwessa,35.62408,0.586429,Baringo
CHEPKESIN,Baringo,Baringo North,Bartabwa,35.84464,0.87769,Baringo
CHEPKEW,Baringo,Baringo North,Bartabwa,35.86586,0.85935,Baringo
CHEPKEWEL,Baringo,Baringo North,Saimo/Soi,35.94102,0.66804,Baringo
CHEPTIGIT,Baringo,Baringo North,Barwessa,35.676064,0.789528,Baringo
EMBO RUTTO,Baringo,Baringo North,Saimo/ Kipsaraman,35.82283,0.65749,Baringo
KABARBET,Baringo,Baringo North,Kabartonjo,35.77573,0.58239,Baringo
KABARGOGE,Baringo,Baringo North,Saimo/ Kipsaraman,35.81885,0.67435,Baringo
KABILANY,Baringo,Baringo North,Bartabwa,35.80637,0.76027,Baringo
KABIYEWO,Baringo,Baringo North,Saimo/ Kipsaraman,35.82674,0.6296,Baringo
KABORON,Baringo,Baringo North,Bartabwa,35.83377,0.80745,Baringo
KAGIR,Baringo,Baringo North,Saimo/Soi,35.95133,0.8023,Baringo
KALABATA,Baringo,Baringo North,Bartabwa,35.7736,0.89529,Baringo
KALEL,Baringo,Baringo North,Kabartonjo,35.78276,0.64351,Baringo
KAMOGOI,Baringo,Baringo North,Barwessa,35.717916,0.714925,Baringo
KAMOTIONY,Baringo,Baringo North,Saimo/ Kipsaraman,35.83206,0.60039,Baringo
KAMPI NYASI,Baringo,Baringo North,Barwessa,35.99151,0.48375,Baringo
KAMWETIO,Baringo,Baringo North,Bartabwa,35.86586,0.85935,Baringo
KAMWETON,Baringo,Baringo North,Bartabwa,35.82228,0.81631,Baringo
KAPCHEPKISA,Baringo,Baringo North,Saimo/ Kipsaraman,35.8316,0.70058,Baringo
KAPCHEPKOR,Baringo,Baringo North,Saimo/ Kipsaraman,35.81844,0.63564,Baringo
KAPCHEPKULEI,Baringo,Baringo North,Saimo/ Kipsaraman,35.82093,0.62152,Baringo
KAPKIAMO,Baringo,Baringo North,Kabartonjo,35.77935,0.66199,Baringo
KAPKIRWOK,Baringo,Baringo North,Kabartonjo,35.7393,0.58702,Baringo
KAPKOIWO,Baringo,Baringo North,Saimo/ Kipsaraman,35.79696,0.73043,Baringo
KAPKOLE,Baringo,Baringo North,Saimo/Soi,35.84653,0.61599,Baringo
KAPKOMBE,Baringo,Baringo North,Saimo/ Kipsaraman,35.82581,0.67298,Baringo
KAPKOMON,Baringo,Baringo North,Kabartonjo,35.73795,0.60483,Baringo
KAPKWANG,Baringo,Baringo North,Kabartonjo,35.78764,0.6529,Baringo
KAPLUK,Baringo,Baringo North,Barwessa,35.66425,0.56848,Baringo
KAPTERE,Baringo,Baringo North,Saimo/ Kipsaraman,35.8023,0.62162,Baringo
KAPTIGIT,Baringo,Baringo North,Barwessa,35.659978,0.843655,Baringo
KAPTILOMWO,Baringo,Baringo North,Barwessa,35.730576,0.752024,Baringo
KAPTIONY D& B,Baringo,Baringo North,Barwessa,35.733123,0.704672,Baringo
KAPTOROT,Baringo,Baringo North,Barwessa,35.758239,0.723568,Baringo
KAPTUM,Baringo,Baringo North,Kabartonjo,35.74891,0.61576,Baringo
KAPTUMIN,Baringo,Baringo North,Kabartonjo,35.79688,0.65961,Baringo
KAPTURO,Baringo,Baringo North,Bartabwa,35.82742,0.91173,Baringo
KASAKA,Baringo,Baringo North,Kabartonjo,35.77448,0.7186,Baringo
KASESYA,Baringo,Baringo North,Saimo/ Kipsaraman,35.83568,0.63595,Baringo
KASIBER,Baringo,Baringo North,Saimo/ Kipsaraman,35.81636,0.60831,Baringo
KASIRMA,Baringo,Baringo North,Barwessa,35.688997,0.587236,Baringo
KASISIT,Baringo,Baringo North,Saimo/ Kipsaraman,35.8297,0.64293,Baringo
KASOK,Baringo,Baringo North,Saimo/ Kipsaraman,35.81407,0.72631,Baringo
KATIBEL,Baringo,Baringo North,Barwessa,35.668196,0.623434,Baringo
KELWONDONIN,Baringo,Baringo North,Saimo/ Kipsaraman,35.83195,0.69369,Baringo
KETURWO,Baringo,Baringo North,Barwessa,35.689018,0.662471,Baringo
KIBIRIOKWONIN,Baringo,Baringo North,Saimo/Soi,35.83009,0.75677,Baringo
KILINGOT,Baringo,Baringo North,Kabartonjo,35.74638,0.62849,Baringo
KIMUGUL,Baringo,Baringo North,Saimo/ Kipsaraman,35.82006,0.71591,Baringo
KINYACH,Baringo,Baringo North,Barwessa,35.676158,0.925159,Baringo
KIPCHERERE,Baringo,Baringo North,Saimo/Soi,35.85527,0.59782,Baringo
KIPKAREN,Baringo,Baringo North,Bartabwa,35.769,0.77757,Baringo
KIPKOLONY,Baringo,Baringo North,Barwessa,35.675839,0.732001,Baringo
KIPSARAMAN,Baringo,Baringo North,Saimo/ Kipsaraman,35.83165,0.73469,Baringo
KIPTAIWA,Baringo,Baringo North,Barwessa,35.686628,0.568071,Baringo
KIPTILINGON,Baringo,Baringo North,Barwessa,35.658577,0.638935,Baringo
KIPTOLELYO,Baringo,Baringo North,Barwessa,35.642735,0.586133,Baringo
KIRINY-GALIA,Baringo,Baringo North,Kabartonjo,35.75962,0.61725,Baringo
KITIBEI,Baringo,Baringo North,Saimo/ Kipsaraman,35.81455,0.70362,Baringo
KOIBOWARE,Baringo,Baringo North,Saimo/Soi,35.90117,0.6937,Baringo
KOISERAT,Baringo,Baringo North,Bartabwa,35.77271,0.83118,Baringo
KOMBOSANG,Baringo,Baringo North,Barwessa,35.744286,0.774137,Baringo
KONOO,Baringo,Baringo North,Bartabwa,35.68351,0.686892,Baringo
KORMOR,Baringo,Baringo North,Barwessa,35.700548,0.636948,Baringo
KOROSECHUN,Baringo,Baringo North,Kabartonjo,35.78335,0.69568,Baringo
KOROTO DAY AND  BOARDING,Baringo,Baringo North,Saimo/Soi,35.90865,0.62882,Baringo
KOSILE,Baringo,Baringo North,Saimo/Soi,35.9353,0.75082,Baringo
KUIKUI D&B,Baringo,Baringo North,Barwessa,35.694979,0.807958,Baringo
KURESCHUN,Baringo,Baringo North,Saimo/ Kipsaraman,35.79941,0.64604,Baringo
LAKE KAMNOROK,Baringo,Baringo North,Barwessa,35.635141,0.634781,Baringo
LAWAN,Baringo,Baringo North,Barwessa,35.746667,0.71784,Baringo
LEKEPCHUN,Baringo,Baringo North,Barwessa,35.69239,0.704712,Baringo
LIKWON,Baringo,Baringo North,Barwessa,35.692173,0.752063,Baringo
LITEIN,Baringo,Baringo North,Barwessa,35.663848,0.649195,Baringo
MAREGUT,Baringo,Baringo North,Barwessa,35.694798,0.868322,Baringo
MOI KABARTONJO D&B,Baringo,Baringo North,Kabartonjo,35.792384,0.62726,Baringo
MOIGUTWO,Baringo,Baringo North,Bartabwa,35.80671,0.7816,Baringo
MOINONIN,Baringo,Baringo North,Saimo/Soi,36.01335,0.67025,Baringo
MONDOI,Baringo,Baringo North,Saimo/ Kipsaraman,35.79619,0.71554,Baringo
MORMORIO,Baringo,Baringo North,Kabartonjo,35.77576,0.69923,Baringo
MUCHUKWO,Baringo,Baringo North,Barwessa,35.668236,0.600082,Baringo
MURTERIT,Baringo,Baringo North,Barwessa,35.741121,0.853989,Baringo
NGARATUKO,Baringo,Baringo North,Saimo/Soi,35.97466,0.73225,Baringo
NUREGOI,Baringo,Baringo North,Kabartonjo,35.74694,0.66497,Baringo
OSSEN,Baringo,Baringo North,Kabartonjo,35.7706,0.60105,Baringo
POI,Baringo,Baringo North,Saimo/ Kipsaraman,35.80975,0.74132,Baringo
REBEKO,Baringo,Baringo North,Saimo/ Kipsaraman,35.7889,0.74395,Baringo
RIMO,Baringo,Baringo North,Bartabwa,35.79931,0.83501,Baringo
RONDININ,Baringo,Baringo North,Saimo/Soi,35.8726,0.74381,Baringo
ROOT,Baringo,Baringo North,Kabartonjo,35.79861,0.68103,Baringo
ROSONDONIN,Baringo,Baringo North,Barwessa,35.6867,0.622203,Baringo
SENEBO,Baringo,Baringo North,Barwessa,35.716836,0.677268,Baringo
SEREMWO,Baringo,Baringo North,Kabartonjo,35.70778,0.56941,Baringo
SESOI,Baringo,Baringo North,Saimo/Soi,35.84404,0.63204,Baringo
SIBILO,Baringo,Baringo North,Saimo/Soi,35.89807,0.7038,Baringo
SIBOO,Baringo,Baringo North,Barwessa,35.711987,0.642162,Baringo
SOGOM,Baringo,Baringo North,Kabartonjo,35.75494,0.63521,Baringo
SUMEIYON,Baringo,Baringo North,Kabartonjo,35.75526,0.58787,Baringo
SUTIECHUN,Baringo,Baringo North,Saimo/Soi,35.86179,0.63734,Baringo
TERENIN,Baringo,Baringo North,Bartabwa,35.81706,0.79951,Baringo
TERIK,Baringo,Baringo North,Bartabwa,35.79569,0.75914,Baringo
TERMET,Baringo,Baringo North,Kabartonjo,35.76484,0.62564,Baringo
TIBINGAR,Baringo,Baringo North,Saimo/Soi,35.89324,0.65488,Baringo
TILINGWO,Baringo,Baringo North,Bartabwa,35.671864,0.903528,Baringo
TILOI,Baringo,Baringo North,Kabartonjo,35.734909,0.63258,Baringo
TIRIMIONIN,Baringo,Baringo North,Saimo/ Kipsaraman,35.8186,0.65863,Baringo
TIRIONDONIN,Baringo,Baringo North,Kabartonjo,35.7667,0.64992,Baringo
TOBOROI,Baringo,Baringo North,Bartabwa,35.80656,0.87583,Baringo
TOROKWONIN,Baringo,Baringo North,Saimo/ Kipsaraman,35.82945,0.68212,Baringo
TUNOIWO,Baringo,Baringo North,Bartabwa,35.80569,0.81568,Baringo
TURBEI,Baringo,Baringo North,Barwessa,35.705888,0.784813,Baringo
TURUTURU,Baringo,Baringo North,Barwessa,35.647445,0.612495,Baringo
YATIA D&B,Baringo,Baringo North,Saimo/Soi,35.92127,0.79023,Baringo
A.I.C KABARTONJO,Baringo,Baringo North,Kabartonjo,35.797995,0.6329,Baringo
BARAKA ACADEMY KASIRYO,Baringo,Baringo North,Kabartonjo,35.747961,0.621445,Baringo
ARAMA,Baringo,Eldama Ravine,Lembus Kwen,35.66039,0.04947,Baringo
BENONIN,Baringo,Eldama Ravine,Ravine,35.71285,0.01458,Baringo
BIK KWEN,Baringo,Eldama Ravine,Lembus,35.60275,0.14585,Baringo
BOITO,Baringo,Eldama Ravine,Mumberes /Maji Mazuri,35.53116,0.02643,Baringo
CHEMUSUSU,Baringo,Eldama Ravine,Lembus Kwen,35.64303,0.0937,Baringo
EQUATOR,Baringo,Eldama Ravine,Mumberes /Maji Mazuri,35.5679,-0.00307,Baringo
GITHIORO,Baringo,Eldama Ravine,Mumberes /Maji Mazuri,35.67962,-0.03438,Baringo
IGURE,Baringo,Eldama Ravine,Mumberes /Maji Mazuri,35.64904,-0.04462,Baringo
KABIMOI,Baringo,Eldama Ravine,Lembus/  Perkerra,35.783502,0.028961,Baringo
KABIYET,Baringo,Eldama Ravine,Ravine,35.72802,0.00427,Baringo
KABOR,Baringo,Eldama Ravine,Lembus Kwen,35.74643,0.14606,Baringo
KAMASABA,Baringo,Eldama Ravine,Lembus Kwen,35.65263,0.05712,Baringo
KAMELILO,Baringo,Eldama Ravine,Ravine,35.73936,0.05652,Baringo
KAMNGOECH,Baringo,Eldama Ravine,Lembus,35.73087,0.08718,Baringo
KAMURA,Baringo,Eldama Ravine,Lembus,35.55654,0.07433,Baringo
KANJULUL,Baringo,Eldama Ravine,Koibatek,35.829565,-0.022629,Baringo
KAPCHOLOI,Baringo,Eldama Ravine,Lembus Kwen,35.68682,0.09255,Baringo
KAPKITET,Baringo,Eldama Ravine,Koibatek,35.808562,0.006585,Baringo
KAPNGEMUI,Baringo,Eldama Ravine,Mumberes /Maji Mazuri,35.861326,0.257963,Baringo
KAPSIGOT,Baringo,Eldama Ravine,Lembus,35.59685,0.10225,Baringo
KAPSOIT,Baringo,Eldama Ravine,Mumberes /Maji Mazuri,35.54704,0.02297,Baringo
KAPTIM,Baringo,Eldama Ravine,Lembus,35.68169,0.04182,Baringo
KEWANGOI,Baringo,Eldama Ravine,Lembus Kwen,35.70155,0.12691,Baringo
KIBIAS,Baringo,Eldama Ravine,Lembus/  Perkerra,35.77853,0.11157,Baringo
KILOMBE,Baringo,Eldama Ravine,Koibatek,35.816925,-0.017773,Baringo
KIPKABER,Baringo,Eldama Ravine,Koibatek,35.788255,0.013016,Baringo
KIPKORIONY,Baringo,Eldama Ravine,Lembus/  Perkerra,35.78498,0.07433,Baringo
KIPKUYANG,Baringo,Eldama Ravine,Lembus Kwen,35.71085,0.11266,Baringo
KIPLONGON,Baringo,Eldama Ravine,Mumberes /Maji Mazuri,35.62023,-0.02755,Baringo
KIPTUNO,Baringo,Eldama Ravine,Lembus Kwen,35.75753,0.13469,Baringo
KOIBATEK,Baringo,Eldama Ravine,Ravine,35.73051,0.05219,Baringo
KOKORWONIN,Baringo,Eldama Ravine,Koibatek,35.797683,-0.008059,Baringo
KOKWOMOI,Baringo,Eldama Ravine,Koibatek,35.781935,-0.004874,Baringo
LALUT,Baringo,Eldama Ravine,Lembus Kwen,35.71774,0.13532,Baringo
LEBOLOS,Baringo,Eldama Ravine,Koibatek,35.786655,-0.021629,Baringo
LELGEL,Baringo,Eldama Ravine,Mumberes /Maji Mazuri,35.56555,0.02017,Baringo
MAJI MAZURI FOREST,Baringo,Eldama Ravine,Mumberes /Maji Mazuri,35.68615,-0.01853,Baringo
MAJI MAZURI RC,Baringo,Eldama Ravine,Mumberes /Maji Mazuri,35.6787,-0.03765,Baringo
MANDINA,Baringo,Eldama Ravine,Koibatek,35.8318,0.00553,Baringo
METIPSO,Baringo,Eldama Ravine,Lembus Kwen,35.66112,0.08763,Baringo
MOCHONGOI,Baringo,Eldama Ravine,Ravine,35.75043,0.02438,Baringo
MORINGWO,Baringo,Eldama Ravine,Lembus,35.70506,0.04921,Baringo
MUMBERES,Baringo,Eldama Ravine,Mumberes /Maji Mazuri,35.60793,-0.01168,Baringo
MUSERECHI,Baringo,Eldama Ravine,Koibatek,35.869255,-0.026681,Baringo
MWACHON,Baringo,Eldama Ravine,Lembus,35.60451,0.16189,Baringo
NAKURTAKWEI,Baringo,Eldama Ravine,Koibatek,35.838033,-0.07582,Baringo
NERKWO,Baringo,Eldama Ravine,Lembus,35.58743,0.12056,Baringo
NGARIE,Baringo,Eldama Ravine,Lembus/  Perkerra,35.785012,0.047932,Baringo
NYAKIO,Baringo,Eldama Ravine,Lembus,35.54626,0.0699,Baringo
ORINIE,Baringo,Eldama Ravine,Koibatek,35.865904,-0.04972,Baringo
POROR,Baringo,Eldama Ravine,Lembus Kwen,35.70755,0.07789,Baringo
SABATIA,Baringo,Eldama Ravine,Koibatek,35.74357,-0.03132,Baringo
SAGAT,Baringo,Eldama Ravine,Koibatek,35.82476,0.07526,Baringo
SAOS,Baringo,Eldama Ravine,Lembus/  Perkerra,35.81458,0.11113,Baringo
SIGORO,Baringo,Eldama Ravine,Lembus Kwen,35.72871,0.12187,Baringo
SIGOWET,Baringo,Eldama Ravine,Lembus,35.54875,0.04181,Baringo
SIMOTWET,Baringo,Eldama Ravine,Lembus/  Perkerra,35.74671,0.08282,Baringo
SINENDE,Baringo,Eldama Ravine,Ravine,35.71288,0.00164,Baringo
SINONIN,Baringo,Eldama Ravine,Lembus Kwen,35.6787,0.07551,Baringo
SOGONIN,Baringo,Eldama Ravine,Ravine,35.73533,0.03095,Baringo
SOIBEI,Baringo,Eldama Ravine,Lembus,35.651577,0.165966,Baringo
SOLIAN,Baringo,Eldama Ravine,Koibatek,35.756139,-0.000504,Baringo
SOYMINING,Baringo,Eldama Ravine,Mumberes /Maji Mazuri,35.59357,0.0022,Baringo
ST MARYS ANDAMA,Baringo,Eldama Ravine,Mumberes /Maji Mazuri,35.66682,-0.03715,Baringo
TAMBARAS,Baringo,Eldama Ravine,Lembus,35.57724,0.03102,Baringo
TARIGO,Baringo,Eldama Ravine,Lembus,35.56447,0.05947,Baringo
TINET,Baringo,Eldama Ravine,Lembus,35.58331,0.06988,Baringo
TIRIPKATOI,Baringo,Eldama Ravine,Lembus,35.61798,0.13042,Baringo
TOLMO,Baringo,Eldama Ravine,Lembus/  Perkerra,35.80943,0.12798,Baringo
TONIOK,Baringo,Eldama Ravine,Lembus/  Perkerra,35.77026,0.07267,Baringo
TOROKWONIN,Baringo,Eldama Ravine,Koibatek,35.830142,0.679396,Baringo
TORONGO,Baringo,Eldama Ravine,Lembus,35.60318,0.1255,Baringo
TUGUMOI,Baringo,Eldama Ravine,Lembus,35.6322,0.15959,Baringo
TULWAMOI,Baringo,Eldama Ravine,Mumberes /Maji Mazuri,35.58466,0.01181,Baringo
BETHANY BRIGHT STAR,Baringo,Eldama Ravine,Ravine,35.72249,0.05133,Baringo
BETLA JUNIOR,Baringo,Eldama Ravine,Lembus Kwen,35.65443,0.06009,Baringo
EMMANUEL JUNIOR TIMBOROA,Baringo,Eldama Ravine,Lembus,35.56583,0.00099,Baringo
A.C.K EMMANUEL KABIMOI,Baringo,Eldama Ravine,Koibatek,35.784387,0.027143,Baringo
KABIMOI KABIMOI GREEN VIEW,Baringo,Eldama Ravine,Lembus/  Perkerra,35.784144,0.026211,Baringo
RAVINE GREEN VIEW,Baringo,Eldama Ravine,Ravine,35.72125,0.05563,Baringo
SOMONIIK ACADEMY SCH,Baringo,Eldama Ravine,Lembus/  Perkerra,35.83242,0.11655,Baringo
ST MARY'S PAROCHIAL PRI,Baringo,Eldama Ravine,Koibatek,35.813999,-0.022063,Baringo
GATEWAY JUNIOR ACADEMY,Baringo,Eldama Ravine,Mumberes /Maji Mazuri,35.82983,0.02183,Baringo
ARABAL,Baringo,Baringo South,Mukutani,36.20158,0.4594,Baringo
BARSEMOI,Baringo,Baringo South,Marigat,35.89079,0.5708,Baringo
CHEBINYINY,Baringo,Baringo South,Mochongoi,36.1684,0.42077,Baringo
CHEMORONGION,Baringo,Baringo South,Mukutani,36.16434,0.45726,Baringo
CHEPKOTOYAN,Baringo,Baringo South,Mochongoi,36.07045,0.38019,Baringo
ELDUME,Baringo,Baringo South,Ilchamus,36.01923,0.45646,Baringo
ENDAO,Baringo,Baringo South,Marigat,35.98251,0.53132,Baringo
ILINGARUA,Baringo,Baringo South,Marigat,36.04638,0.47275,Baringo
KABEL,Baringo,Baringo South,Mochongoi,36.22465,0.30845,Baringo
KAILER,Baringo,Baringo South,Ilchamus,36.07103,0.41593,Baringo
KAMAILEL,Baringo,Baringo South,Mochongoi,36.25032,0.24763,Baringo
KAMPI YA SAMAKI,Baringo,Baringo South,Marigat,36.02818,0.62964,Baringo
KAMUNGEI,Baringo,Baringo South,Mochongoi,35.86232,0.48286,Baringo
KAPINDASUM,Baringo,Baringo South,Mukutani,36.18226,0.48371,Baringo
KAPKECHIR,Baringo,Baringo South,Mochongoi,36.23215,0.35738,Baringo
KAPKOIBAI,Baringo,Baringo South,Marigat,35.853624,0.540833,Baringo
KAPKUIKUI,Baringo,Baringo South,Mochongoi,36.04314,0.37347,Baringo
KAPKUN,Baringo,Baringo South,Marigat,35.89396,0.39403,Baringo
KAPRONGUNO,Baringo,Baringo South,Mochongoi,36.072435,0.357966,Baringo
KAPSOI,Baringo,Baringo South,Mukutani,36.01016,0.62011,Baringo
KAPTOMBES,Baringo,Baringo South,Marigat,36.02052,0.41112,Baringo
KARNEE,Baringo,Baringo South,Mochongoi,36.2189,0.32827,Baringo
KASIELA,Baringo,Baringo South,Mochongoi,36.2133,0.42919,Baringo
KEON,Baringo,Baringo South,Mochongoi,36.18022,0.33221,Baringo
KIBINGOR,Baringo,Baringo South,Marigat,35.86508,0.51263,Baringo
KIMALEL,Baringo,Baringo South,Marigat,35.8928,0.46453,Baringo
KIMAO,Baringo,Baringo South,Marigat,35.83087,0.448816,Baringo
KIMOIGUT,Baringo,Baringo South,Mochongoi,35.84486,0.43246,Baringo
KIMOROK,Baringo,Baringo South,Marigat,35.9361,0.47268,Baringo
KOIMUGUL,Baringo,Baringo South,Mochongoi,36.21113,0.27226,Baringo
KOITILION,Baringo,Baringo South,Marigat,35.89233,0.51971,Baringo
KOKWA ISLAND,Baringo,Baringo South,Ilchamus,36.0704,0.606229,Baringo
KONGASIS,Baringo,Baringo South,Mochongoi,36.27079,0.27136,Baringo
KORIEMA,Baringo,Baringo South,Marigat,35.84746,0.45361,Baringo
LABOS,Baringo,Baringo South,Marigat,36.01328,0.48999,Baringo
LEKETETWO,Baringo,Baringo South,Mochongoi,36.24707,0.29394,Baringo
LOBEBER,Baringo,Baringo South,Marigat,35.98759,0.55793,Baringo
LOBOI,Baringo,Baringo South,Mochongoi,36.06035,0.35861,Baringo
LOGUMGUM,Baringo,Baringo South,Mukutani,36.080762,0.448877,Baringo
LOIMINANG,Baringo,Baringo South,Mukutani,36.121277,0.552304,Baringo
LONGEWAN,Baringo,Baringo South,Ilchamus,36.070393,0.467394,Baringo
LOROPIL,Baringo,Baringo South,Ilchamus,36.03608,0.50329,Baringo
LORROK,Baringo,Baringo South,Mukutani,36.102906,0.493223,Baringo
LORUK,Baringo,Baringo South,Marigat,36.0325,0.71401,Baringo
MAOI DAY AND BOARDING,Baringo,Baringo South,Marigat,35.94209,0.3974,Baringo
MARIGAT BOARDING,Baringo,Baringo South,Marigat,35.983274,0.469472,Baringo
MBECHOT,Baringo,Baringo South,Mochongoi,36.095066,0.392501,Baringo
MEISORI,Baringo,Baringo South,Ilchamus,36.002744,0.588035,Baringo
MOCHONGOI,Baringo,Baringo South,Mochongoi,36.19066,0.30914,Baringo
MUKUTANI,Baringo,Baringo South,Mukutani,36.251779,0.633568,Baringo
MUTITU,Baringo,Baringo South,Mochongoi,36.25644,0.28528,Baringo
NGAMBO,Baringo,Baringo South,Ilchamus,36.06054,0.50772,Baringo
NGELECHA,Baringo,Baringo South,Mukutani,36.26804,0.51012,Baringo
NGENYILEL,Baringo,Baringo South,Mochongoi,36.28263,0.254,Baringo
NGOLBELON,Baringo,Baringo South,Marigat,35.84635,0.51895,Baringo
NYIMBEI,Baringo,Baringo South,Mochongoi,36.15648,0.36094,Baringo
PATKAWANIN,Baringo,Baringo South,Marigat,35.84075,0.48519,Baringo
PERKERRA UNION ACADEMY,Baringo,Baringo South,Marigat,36.03031,0.47286,Baringo
RABAI,Baringo,Baringo South,Marigat,35.99,0.46511,Baringo
SABOR,Baringo,Baringo South,Marigat,35.85956,0.4114,Baringo
SALABANI,Baringo,Baringo South,Ilchamus,36.0464,0.55253,Baringo
SAMBAKA,Baringo,Baringo South,Mochongoi,36.15741,0.303598,Baringo
SANDAI,Baringo,Baringo South,Ilchamus,36.0857,0.39597,Baringo
SINONI,Baringo,Baringo South,Mochongoi,36.20532,0.37788,Baringo
SINTAAN,Baringo,Baringo South,Ilchamus,36.05764,0.4874,Baringo
SOKEE,Baringo,Baringo South,Mochongoi,36.20327,0.28826,Baringo
SOKOTEI D&B,Baringo,Baringo South,Mukutani,36.103884,0.534248,Baringo
TUIYOTICH,Baringo,Baringo South,Mochongoi,36.2509,0.34712,Baringo
TULWOBSOO,Baringo,Baringo South,Mochongoi,36.26172,0.26688,Baringo
MARIGAT AGAPE JUNIOR,Baringo,Baringo South,Marigat,35.98191,0.47744,Baringo
SANDAI HILLVIEW,Baringo,Baringo South,Mochongoi,36.086504,0.393241,Baringo
ST FRANCIS CATHOLIC KORIEMA,Baringo,Baringo South,Marigat,35.86166,0.45935,Baringo
TOWN FELLOWSHIP AC,Baringo,Baringo South,Marigat,35.98065,0.47484,Baringo
KENEROI PRIMARY,Baringo,Baringo South,Mochongoi,36.2241,0.25817,Baringo
ROROBAI PRIMARY,Baringo,Baringo South,Marigat,35.86287,0.58269,Baringo
YEMIT PRIMARY,Baringo,Baringo South,Mochongoi,35.470852,0.982724,Baringo
GREEN BELLS-KAMPI YA SAMAKI,Baringo,Baringo South,Ilchamus,36.05908,0.3614,Baringo
ST.PAUL CATHOLIC,Baringo,Baringo South,Marigat,35.98365,0.47162,Baringo
AIC EBENEZER,Baringo,Mogotio,Emining,35.7653,0.55602,Baringo
ARAM,Baringo,Mogotio,Emining,35.83217,0.165538,Baringo
BENONGOI,Baringo,Mogotio,Mogotio,35.764526,0.187753,Baringo
BIKWEN GOBAT,Baringo,Mogotio,Emining,35.60275,0.14585,Baringo
BOROKWO,Baringo,Mogotio,Emining,35.921089,0.190942,Baringo
CHEBEREN,Baringo,Mogotio,Emining,35.835205,0.22903,Baringo
CHEBIREBEI,Baringo,Mogotio,Kisanana,36.136849,0.267298,Baringo
CHEMOGOCH,Baringo,Mogotio,Mogotio,35.938849,0.022104,Baringo
CHEMOINOI,Baringo,Mogotio,Emining,35.936687,0.20502,Baringo
CHEMORGONG,Baringo,Mogotio,Mogotio,35.97266,0.97914,Baringo
CHEMUTUNG,Baringo,Mogotio,Emining,35.978024,0.249054,Baringo
CHEPNYORGIN,Baringo,Mogotio,Emining,35.934616,0.340821,Baringo
CHEPYUAN,Baringo,Mogotio,Kisanana,35.993289,0.159289,Baringo
CHOMIEK,Baringo,Mogotio,Kisanana,36.090565,0.10593,Baringo
EMBOGONG,Baringo,Mogotio,Emining,35.90154,0.205744,Baringo
EMINING DAY AND BOARDING,Baringo,Mogotio,Emining,35.885974,0.139011,Baringo
EMSOS,Baringo,Mogotio,Kisanana,36.098938,0.166734,Baringo
ESAGERI AIC,Baringo,Mogotio,Mogotio,35.723382,0.053966,Baringo
KABERGEI,Baringo,Mogotio,Kisanana,36.137005,0.134599,Baringo
KABOGOR,Baringo,Mogotio,Emining,35.850958,0.191489,Baringo
KABURGEI,Baringo,Mogotio,Emining,35.768907,0.167133,Baringo
KABUSWO,Baringo,Mogotio,Kisanana,36.190908,0.212032,Baringo
KAMAR,Baringo,Mogotio,Emining,36.013141,0.251557,Baringo
KAMASAI,Baringo,Mogotio,Kisanana,36.142106,0.174178,Baringo
KAPCHELUKUNY,Baringo,Mogotio,Emining,35.89967,0.112011,Baringo
KAPKARARAM,Baringo,Mogotio,Mogotio,35.887542,0.065731,Baringo
KAPKEIN,Baringo,Mogotio,Mogotio,35.788847,0.240639,Baringo
KAPKUNDUL,Baringo,Mogotio,Kisanana,36.04934,0.08032,Baringo
KAPLAIMOI,Baringo,Mogotio,Mogotio,35.736774,0.192181,Baringo
KAPLELWO,Baringo,Mogotio,Emining,35.955043,0.382489,Baringo
KAPLOGOS,Baringo,Mogotio,Emining,35.834505,0.252794,Baringo
KAPNGEMUI,Baringo,Mogotio,Emining,35.862245,0.255286,Baringo
KAPNOSGEI,Baringo,Mogotio,Kisanana,36.128887,0.172524,Baringo
KAPSOK,Baringo,Mogotio,Mogotio,35.780444,0.217309,Baringo
KAPYEMIT,Baringo,Mogotio,Mogotio,35.662957,0.535507,Baringo
KELELWA,Baringo,Mogotio,Mogotio,35.909742,-0.024129,Baringo
KIBOTANY,Baringo,Mogotio,Kisanana,36.03166,0.04065,Baringo
KIMNGOROM,Baringo,Mogotio,Mogotio,35.816667,0.166667,Baringo
KIMOSE,Baringo,Mogotio,Emining,35.895662,0.224776,Baringo
KIPCHOBET,Baringo,Mogotio,Emining,35.873398,0.218103,Baringo
KIPKIGEI,Baringo,Mogotio,Mogotio,35.782083,0.195312,Baringo
KIPKITUR,Baringo,Mogotio,Kisanana,36.00143,0.07278,Baringo
KIPNYUNGUNY,Baringo,Mogotio,Kisanana,36.126841,0.097723,Baringo
KIPSOGON,Baringo,Mogotio,Mogotio,35.917258,-0.059978,Baringo
KIPTOIM,Baringo,Mogotio,Mogotio,35.84493,0.04073,Baringo
KIRIBOT,Baringo,Mogotio,Kisanana,36.184547,0.237264,Baringo
KISANANA,Baringo,Mogotio,Kisanana,36.094219,0.018897,Baringo
KISKIS,Baringo,Mogotio,Emining,35.956669,0.22762,Baringo
KOISARAM,Baringo,Mogotio,Kisanana,36.061699,0.001976,Baringo
KOITEBES,Baringo,Mogotio,Emining,35.838341,0.147293,Baringo
KOKWENMOI,Baringo,Mogotio,Kisanana,36.039002,0.124232,Baringo
KURES,Baringo,Mogotio,Mogotio,35.914134,0.094202,Baringo
LEGETETWET,Baringo,Mogotio,Mogotio,35.897977,0.037486,Baringo
LELEN,Baringo,Mogotio,Emining,35.968241,0.351493,Baringo
LOMANIRA,Baringo,Mogotio,Mogotio,35.953816,0.018537,Baringo
LOMBALA,Baringo,Mogotio,Mogotio,35.87835,0.090257,Baringo
LOMBOGISHU,Baringo,Mogotio,Mogotio,35.888363,-0.006124,Baringo
MAGOI,Baringo,Mogotio,Kisanana,36.011883,0.12747,Baringo
MAJIMOTO DAY & BOARDING,Baringo,Mogotio,Kisanana,36.048053,0.262764,Baringo
MATEBEI,Baringo,Mogotio,Mogotio,35.859578,0.124284,Baringo
MOGOTIO,Baringo,Mogotio,Mogotio,35.959683,-0.015074,Baringo
MOLOK,Baringo,Mogotio,Emining,35.963942,0.086013,Baringo
MOLOS,Baringo,Mogotio,Emining,35.999208,0.280084,Baringo
MOLOSIRWE,Baringo,Mogotio,Kisanana,35.960989,0.133442,Baringo
MUGURIN,Baringo,Mogotio,Kisanana,36.03558,0.09843,Baringo
MUGUYUNI,Baringo,Mogotio,Kisanana,35.963942,0.086013,Baringo
MUTARAN,Baringo,Mogotio,Emining,35.939063,0.245196,Baringo
NATO,Baringo,Mogotio,Emining,35.899491,0.176409,Baringo
NGENDALEL,Baringo,Mogotio,Kisanana,36.115292,0.141355,Baringo
NGENTUI,Baringo,Mogotio,Mogotio,35.83193,0.212384,Baringo
NGUBERETI,Baringo,Mogotio,Mogotio,35.906695,0.055993,Baringo
NGUSERO,Baringo,Mogotio,Mogotio,36.166667,0.416667,Baringo
NOIWET DAY & BOARDING,Baringo,Mogotio,Mogotio,35.929138,0.052181,Baringo
NYALILBUCH,Baringo,Mogotio,Kisanana,36.147596,0.224888,Baringo
OINOPSOS,Baringo,Mogotio,Emining,35.82005,0.197255,Baringo
OLDEBES,Baringo,Mogotio,Kisanana,36.07938,0.05603,Baringo
OTERIT,Baringo,Mogotio,Emining,35.933353,0.112396,Baringo
POMBO,Baringo,Mogotio,Kisanana,36.103997,0.070877,Baringo
RADAD,Baringo,Mogotio,Emining,35.923743,0.298462,Baringo
ROSOGA,Baringo,Mogotio,Mogotio,35.858881,0.102915,Baringo
SAGASAGIK,Baringo,Mogotio,Mogotio,35.859,0.08402,Baringo
SIRWA,Baringo,Mogotio,Mogotio,35.775577,0.186878,Baringo
SORE,Baringo,Mogotio,Mogotio,35.752947,0.198752,Baringo
SORTI,Baringo,Mogotio,Emining,35.85996,0.151635,Baringo
SOSION,Baringo,Mogotio,Emining,35.765616,0.405804,Baringo
ST MARY'S,Baringo,Mogotio,Mogotio,35.803773,0.313307,Baringo
TIAN,Baringo,Mogotio,Emining,35.808548,0.25049,Baringo
TINGTINGNYON,Baringo,Mogotio,Kisanana,36.004363,0.223825,Baringo
WASEGES,Baringo,Mogotio,Kisanana,36.169374,0.25974,Baringo
CHEPKOK VISION,Baringo,Mogotio,Kisanana,36.00635,0.05389,Baringo
CRESCENT ACADEMY,Baringo,Mogotio,Mogotio,35.84189,0.0404,Baringo
KIRAM ACADEMY,Baringo,Mogotio,Mogotio,35.956052,-0.025717,Baringo
MOGOTIO LITTLE FRIENDS,Baringo,Mogotio,Mogotio,35.792,0.63,Baringo
OASIS HILSIDE,Baringo,Mogotio,Mogotio,35.857888,0.131635,Baringo
CHEPTUNOYO,Baringo,Tiaty,Silale,36.01592,0.9686,Baringo
CHESIRIMION,Baringo,Tiaty,Loiyamorok,36.02641,0.84107,Baringo
CHURO,Baringo,Tiaty,Churo/Amaya,36.407466,0.776462,Baringo
KACHILITWA,Baringo,Tiaty,Churo/Amaya,36.380932,0.789945,Baringo
KAPTUYA,Baringo,Tiaty,Churo/Amaya,36.359574,0.683062,Baringo
KASILANGWA,Baringo,Tiaty,Churo/Amaya,36.444292,0.809503,Baringo
KATUIT,Baringo,Tiaty,Loiyamorok,36.057286,0.728477,Baringo
KOKWOTOTO,Baringo,Tiaty,Tangulbei/ Korossi,36.302647,0.900813,Baringo
KOMOLION,Baringo,Tiaty,Tangulbei/ Korossi,36.086675,0.689938,Baringo
KOSITEI,Baringo,Tiaty,Ribkwo,35.94925,0.93216,Baringo
NAKOKO,Baringo,Tiaty,Silale,36.04239,1.02819,Baringo
NANGARUA,Baringo,Tiaty,Churo/Amaya,36.365114,0.757537,Baringo
NGINYANG BOARDING,Baringo,Tiaty,Loiyamorok,35.716764,0.61621,Baringo
PLESIAN B,Baringo,Tiaty,Churo/Amaya,36.45188,0.868128,Baringo
RIONGO,Baringo,Tiaty,Silale,36.166685,0.982769,Baringo
TEBELEKWO,Baringo,Tiaty,Churo/Amaya,36.39819,0.724315,Baringo
AISAIK,Bomet,Bomet Central,Singorwet,35.344379,-0.718958,Bomet
BALEK B,Bomet,Bomet Central,Silibwet Township,35.304035,-0.712246,Bomet
BARAKA,Bomet,Bomet Central,Chesoen,35.284814,-0.716053,Bomet
BELGUT,Bomet,Bomet Central,Ndaraweta,35.41535,-0.74847,Bomet
BILELGA,Bomet,Bomet Central,Ndaraweta,35.44409,-0.77068,Bomet
BONYORIOT,Bomet,Bomet Central,Ndaraweta,35.40184,-0.7972,Bomet
BOREIYWEK,Bomet,Bomet East,Kembu,35.419949,-0.837439,Bomet
BUKACHA,Bomet,Bomet East,Merigi,35.40339,-0.74654,Bomet
BUKUNYE,Bomet,Bomet East,Chemaner,35.50619,-0.80478,Bomet
CHAMBORI,Bomet,Bomet East,Chemaner,35.49216,-0.81625,Bomet
CHEBISIAN,Bomet,Bomet East,Merigi,35.40786,-0.78712,Bomet
CHEBOIN,Bomet,Bomet East,Longisa,35.37525,-0.80432,Bomet
CHEBOINGONG,Bomet,Bomet Central,Silibwet Township,35.331369,-0.764061,Bomet
CHEBOROR,Bomet,Bomet East,Kipreres,35.36781,-0.90798,Bomet
CHELEMEI,Bomet,Bomet East,Kipreres,35.35889,-0.90069,Bomet
CHEMATICH,Bomet,Bomet Central,Silibwet Township,35.357928,-0.723405,Bomet
CHEMORUT,Bomet,Bomet East,Merigi,35.444099,-0.76526,Bomet
CHEPKIRIB,Bomet,Bomet East,Longisa,35.370219,-0.865313,Bomet
CHEPKITWAL,Bomet,Bomet East,Kembu,35.41758,-0.79865,Bomet
CHEPKOLON,Bomet,Bomet East,Merigi,35.39094,-0.78559,Bomet
CHEPKONGONY,Bomet,Bomet Central,Silibwet Township,35.370773,-0.731939,Bomet
CHEPKURBET,Bomet,Bomet Central,Silibwet Township,35.313614,-0.709196,Bomet
CHEPTUIYET,Bomet,Bomet Central,Singorwet,35.346393,-0.709157,Bomet
CHESOEN,Bomet,Bomet Central,Chesoen,35.28491,-0.69957,Bomet
CHESWERTA,Bomet,Bomet Central,Ndaraweta,35.38815,-0.674652,Bomet
CHUIYAT,Bomet,Bomet Central,Singorwet,35.388294,-0.704703,Bomet
DR STEURY MEMORIAL,Bomet,Bomet Central,Silibwet Township,35.35845,-0.739528,Bomet
EMITYOT,Bomet,Bomet East,Longisa,35.36644,-0.846226,Bomet
KABUNGUT,Bomet,Bomet Central,Singorwet,35.31738,-0.728134,Bomet
KABUSARE,Bomet,Bomet Central,Ndaraweta,35.351406,-0.679815,Bomet
KAKIMIRAI CENTRAL,Bomet,Bomet East,Chemaner,35.45054,-0.84649,Bomet
KALYET,Bomet,Bomet East,Kipreres,35.42118,-0.91021,Bomet
KAMOBIRIRI,Bomet,Bomet Central,Chesoen,35.338614,-0.691994,Bomet
KAMOGOSO,Bomet,Bomet Central,Chesoen,35.26094,-0.69308,Bomet
KAMOYO,Bomet,Bomet East,Merigi,35.41148,-0.76412,Bomet
KAPCHELUCH,Bomet,Bomet Central,Ndaraweta,35.42297,-0.89199,Bomet
KAPKESIEGO,Bomet,Bomet East,Merigi,35.38883,-0.730655,Bomet
KAPKIGORWET,Bomet,Bomet Central,Ndaraweta,35.4115,-0.707837,Bomet
KAPKIMOLWA,Bomet,Bomet East,Longisa,35.43522,-0.88516,Bomet
KAPLELACH B,Bomet,Bomet East,Merigi,35.43023,-0.771131,Bomet
KAPNARIET,Bomet,Bomet Central,Ndaraweta,35.360165,-0.672893,Bomet
KAPORUSO,Bomet,Bomet East,Kembu,35.4396,-0.81257,Bomet
KAPSIGOWO,Bomet,Bomet Central,Silibwet Township,35.33085,-0.711949,Bomet
KAPSIMBIRI,Bomet,Bomet Central,Silibwet Township,35.365249,-0.775522,Bomet
KAPSIMOTWA,Bomet,Bomet Central,Silibwet Township,35.321374,-0.756331,Bomet
KAPSOIYO CENTRE,Bomet,Bomet Central,Silibwet Township,35.335233,-0.735639,Bomet
KAPTETGOT,Bomet,Bomet Central,Chesoen,35.292758,-0.67308,Bomet
KAPTILOLWO,Bomet,Bomet Central,Ndaraweta,35.194465,-0.689488,Bomet
KAPTORORGO,Bomet,Bomet Central,Ndaraweta,35.365713,-0.700667,Bomet
KECHEIYAT,Bomet,Bomet Central,Silibwet Township,35.3848,-0.75962,Bomet
KELYOT,Bomet,Bomet Central,Silibwet Township,35.354435,-0.762978,Bomet
KEMBU,Bomet,Bomet East,Kembu,35.43156,-0.82707,Bomet
KESEBEK,Bomet,Bomet East,Kembu,35.428612,-0.863191,Bomet
KIBISORONIK,Bomet,Bomet East,Kipreres,35.35851,-0.88608,Bomet
KIBIWOT B,Bomet,Bomet Central,Chesoen,35.46137,-0.81052,Bomet
KIBOCHI,Bomet,Bomet Central,Ndaraweta,35.402952,-0.701839,Bomet
KIMARGIS,Bomet,Bomet Central,Chesoen,35.29163,-0.67869,Bomet
KIMUCHUL,Bomet,Bomet East,Chemaner,35.50788,-0.78936,Bomet
KIPKOLIGO,Bomet,Bomet East,Chemaner,35.47639,-0.8291,Bomet
KIPKURION,Bomet,Bomet East,Kembu,35.45955,-0.77195,Bomet
KIPLABOTWA,Bomet,Bomet East,Kipreres,35.39531,-0.90497,Bomet
KIPLELJI,Bomet,Bomet Central,Chesoen,35.25576,-0.73146,Bomet
KIPLOKYI,Bomet,Bomet Central,Chesoen,35.325334,-0.676735,Bomet
KIPRERES,Bomet,Bomet East,Chemaner,35.35776,-0.92,Bomet
KIPTEWIT,Bomet,Bomet Central,Chesoen,35.28343,-0.67531,Bomet
KIPTOBIT,Bomet,Bomet East,Longisa,35.39386,-0.87722,Bomet
KIPTOGOCH,Bomet,Bomet East,Merigi,35.4441,-0.73921,Bomet
KIPTULWA,Bomet,Bomet East,Kembu,35.17972,-0.76544,Bomet
KIPYOSIT,Bomet,Bomet East,Kembu,35.480196,-0.76379,Bomet
KIRISWO,Bomet,Bomet Central,Singorwet,35.393509,-0.726747,Bomet
KITAIMA,Bomet,Bomet Central,Chesoen,35.327542,-0.689478,Bomet
KITOBEN,Bomet,Bomet Central,Singorwet,35.407549,-0.735316,Bomet
KOIBEIYON,Bomet,Bomet East,Kembu,35.438,-0.85,Bomet
KOISOMOI,Bomet,Bomet East,Merigi,35.373552,-0.767703,Bomet
KOITA,Bomet,Bomet East,Kipreres,35.38594,-0.91804,Bomet
KONGOTIK,Bomet,Bomet East,Kembu,35.39685,-0.8247,Bomet
KORARA,Bomet,Bomet East,Longisa,35.40697,-0.89575,Bomet
KUGUNOI,Bomet,Bomet East,Longisa,35.38619,-0.86838,Bomet
KWENIK AB ILET,Bomet,Bomet Central,Ndaraweta,35.331633,-0.656697,Bomet
LALAKIN,Bomet,Bomet East,Kembu,35.49033,-0.76961,Bomet
LEBEKWET,Bomet,Bomet East,Kembu,35.40233,-0.83574,Bomet
LEKIMBO,Bomet,Bomet East,Longisa,35.37456,-0.83252,Bomet
LELKATET,Bomet,Bomet East,Chemaner,35.52569,-0.79172,Bomet
LONGISA,Bomet,Bomet East,Longisa,35.393998,-0.854742,Bomet
MAASET,Bomet,Bomet Central,Chesoen,35.285235,-0.659616,Bomet
MAGENJI,Bomet,Bomet East,Merigi,35.39759,-0.75686,Bomet
MANGOITA,Bomet,Bomet East,Chemaner,35.5374,-0.78503,Bomet
MASARE,Bomet,Bomet East,Longisa,35.356971,-0.814532,Bomet
MATAIMA,Bomet,Bomet East,Kembu,35.48236,-0.77754,Bomet
MATARMAT,Bomet,Bomet East,Merigi,35.41436,-0.7739,Bomet
MENET,Bomet,Bomet East,Merigi,35.45108,-0.75928,Bomet
MENGIT,Bomet,Bomet East,Kipreres,35.37115,-0.95774,Bomet
MERIGI,Bomet,Bomet East,Merigi,35.39868,-0.76908,Bomet
MOBURO,Bomet,Bomet Central,Silibwet Township,35.380421,-0.768215,Bomet
MOGINDO,Bomet,Bomet Central,Ndaraweta,35.362599,-0.692929,Bomet
MOGITUI,Bomet,Bomet East,Kembu,35.47719,-0.78611,Bomet
MOGOIYWET,Bomet,Bomet Central,Ndaraweta,35.377607,-0.663242,Bomet
MOGOMA,Bomet,Bomet East,Kembu,35.41119,-0.81869,Bomet
MONDOIYWET,Bomet,Bomet Central,Ndaraweta,35.362021,-0.653525,Bomet
MONONWET,Bomet,Bomet Central,Ndaraweta,35.42128,-0.75782,Bomet
MORIT,Bomet,Bomet Central,Chesoen,35.25065,-0.7157,Bomet
MOTOIMET,Bomet,Bomet East,Merigi,35.427759,-0.753014,Bomet
MT SUGUTEK,Bomet,Bomet Central,Ndaraweta,35.343036,-0.683424,Bomet
MUGANGO,Bomet,Bomet Central,Singorwet,35.39411,-0.71238,Bomet
MULOT,Bomet,Bomet East,Kipreres,35.41602,-0.92305,Bomet
MURANY,Bomet,Bomet East,Kembu,35.45257,-0.80328,Bomet
MURWONGOI,Bomet,Bomet East,Kembu,35.40346,-0.80305,Bomet
NDABIBI,Bomet,Bomet East,Kipreres,35.37204,-0.92551,Bomet
NDARAWETA,Bomet,Bomet Central,Ndaraweta,35.380911,-0.684206,Bomet
NDERIAT,Bomet,Bomet East,Longisa,35.421184,-0.864532,Bomet
NDUBAI,Bomet,Bomet East,Kipreres,35.37725,-0.89215,Bomet
NGOMWET,Bomet,Bomet Central,Chesoen,35.29872,-0.69029,Bomet
NJERIAN,Bomet,Bomet Central,Silibwet Township,35.368433,-0.753793,Bomet
NORERA,Bomet,Bomet East,Longisa,35.45327,-0.86823,Bomet
NYABONGO,Bomet,Bomet Central,Singorwet,35.377621,-0.709714,Bomet
NYAURURU,Bomet,Bomet East,Kipreres,35.39223,-0.94647,Bomet
NYONGORES,Bomet,Bomet Central,Ndaraweta,35.410452,-0.692811,Bomet
OLBOBO,Bomet,Bomet Central,Ndaraweta,35.3989,-0.93215,Bomet
OLMOTONYI,Bomet,Bomet Central,Singorwet,35.285438,-0.724639,Bomet
OLNGOSWET,Bomet,Bomet East,Longisa,35.40432,-0.86848,Bomet
SALAIK,Bomet,Bomet Central,Singorwet,35.372342,-0.716795,Bomet
SAOSET,Bomet,Bomet East,Kembu,35.42627,-0.78419,Bomet
SAPARET,Bomet,Bomet East,Merigi,35.45729,-0.75018,Bomet
SEGUTIET,Bomet,Bomet Central,Chesoen,35.26566,-0.68892,Bomet
SEMOI,Bomet,Bomet Central,Singorwet,35.405506,-0.716131,Bomet
SERGUTIET,Bomet,Bomet Central,Chesoen,35.320469,-0.663251,Bomet
SIGOWET,Bomet,Bomet East,Chemaner,35.4602,-0.82606,Bomet
SILIBWET,Bomet,Bomet Central,Silibwet Township,35.344873,-0.726848,Bomet
SIMOTWET,Bomet,Bomet East,Kipreres,35.41578,-0.93646,Bomet
SINENDET,Bomet,Bomet Central,Singorwet,35.380081,-0.717143,Bomet
SINGORWET,Bomet,Bomet Central,Singorwet,35.296789,-0.725956,Bomet
SIWOT,Bomet,Bomet East,Kipreres,35.36475,-0.86875,Bomet
SOGOET,Bomet,Bomet Central,Ndaraweta,35.396676,-0.662293,Bomet
SONOIYA,Bomet,Bomet East,Kembu,35.46497,-0.79045,Bomet
SONOKWEK,Bomet,Bomet Central,Ndaraweta,35.339164,-0.665865,Bomet
SUSWONDO,Bomet,Bomet Central,Singorwet,35.397051,-0.737428,Bomet
TAABET,Bomet,Bomet Central,Chesoen,35.26352,-0.71254,Bomet
TAGARUTO,Bomet,Bomet Central,Ndaraweta,35.403168,-0.670392,Bomet
TEGANDA,Bomet,Bomet Central,Ndaraweta,35.40081,-0.682276,Bomet
TEGAT,Bomet,Bomet East,Kembu,35.45005,-0.78508,Bomet
TENWEK,Bomet,Bomet Central,Silibwet Township,35.357338,-0.740275,Bomet
TENWEK BOARDING,Bomet,Bomet Central,Silibwet Township,35.360979,-0.742547,Bomet
TIRGAGA,Bomet,Bomet Central,Singorwet,35.355905,-0.705551,Bomet
TIROTO,Bomet,Bomet East,Merigi,35.391,-0.80096,Bomet
TOGOMDA,Bomet,Bomet East,Merigi,35.45236,-0.76824,Bomet
TORONIK,Bomet,Bomet East,Kipreres,35.35487,-0.94503,Bomet
TUMOIYOT PRY,Bomet,Bomet East,Merigi,35.43582,-0.75964,Bomet
TUMOIYOT CENTRAL,Bomet,Bomet Central,Silibwet Township,35.320636,-0.742123,Bomet
BOMET CHRISTIAN,Bomet,Bomet Central,Silibwet Township,35.375581,-0.831832,Bomet
BREDALS,Bomet,Bomet Central,Ndaraweta,35.4068,-0.77956,Bomet
CHELSA,Bomet,Bomet Central,Silibwet Township,35.338452,-0.773034,Bomet
CHEMANER VISIONARY,Bomet,Bomet East,Chemaner,35.48771,-0.79775,Bomet
CHEMENG WA FILA,Bomet,Bomet East,Kembu,35.336962,-0.965572,Bomet
EMKWEN BOR,Bomet,Bomet Central,Ndaraweta,35.350381,-0.65346,Bomet
JUNIOR AMBASSADORS,Bomet,Bomet Central,Ndaraweta,35.382575,-0.686792,Bomet
LONGISA SUNSHINE,Bomet,Bomet East,Longisa,35.393524,-0.85419,Bomet
NEEMA AUTO,Bomet,Bomet East,Kipreres,35.354283,-0.903744,Bomet
SILIBWET TOWNSHIP,Bomet,Bomet Central,Silibwet Township,35.347708,-0.728856,Bomet
ST CATHERINE TEGAT,Bomet,Bomet East,Kembu,35.45099,-0.78475,Bomet
ST PETERS KIMUGUL,Bomet,Bomet East,Longisa,35.374889,-0.821315,Bomet
ST PHILIPH S ACADEMIA,Bomet,Bomet East,Kembu,35.43979,-0.82975,Bomet
ST TERESA S CHEMANER,Bomet,Bomet East,Chemaner,35.4879,-0.79812,Bomet
TAABET HILL CREST,Bomet,Bomet Central,Chesoen,35.264322,-0.715198,Bomet
TAMASON,Bomet,Bomet Central,Silibwet Township,35.345327,-0.779817,Bomet
SAMOEI,Bomet,Bomet Central,Chesoen,35.273822,-0.703164,Bomet
SIBAIYAN,Bomet,Bomet Central,Chesoen,35.310489,-0.69692,Bomet
TANGUT,Bomet,Bomet East,Kembu,35.391169,-0.813721,Bomet
TEBESWET IGOR,Bomet,Bomet East,Merigi,35.374744,-0.787377,Bomet
WESEGA,Bomet,Bomet East,Kembu,35.48488,-0.77246,Bomet
EBENEZER KAPLELACH,Bomet,Bomet Central,Ndaraweta,35.168809,-0.67773,Bomet
KAPTORORGO ACHIEVERS,Bomet,Bomet Central,Ndaraweta,35.365745,-0.702148,Bomet
PHEPRICAN ACADEMY KORARA,Bomet,Bomet East,Longisa,35.408045,-0.898417,Bomet
UTAFITI BORA GRAMMAR,Bomet,Bomet Central,Singorwet,35.295226,-0.726618,Bomet
ATEBWO,Bomet,Chepalungu,Siongiroi,35.19695,-0.89126,Bomet
BINGWA,Bomet,Chepalungu,Siongiroi,35.186595,-0.906777,Bomet
BORUT,Bomet,Chepalungu,Chebunyo,35.20174,-1.00005,Bomet
CHEBANYINY,Bomet,Chepalungu,Kong'asis,35.24992,-0.85702,Bomet
CHEBARAA,Bomet,Chepalungu,Sigor,35.2714,-0.89773,Bomet
CHEBELION,Bomet,Chepalungu,Chebunyo,35.28339,-0.97644,Bomet
CHEBIRIR,Bomet,Chepalungu,Nyangores,35.329317,-0.795769,Bomet
CHEBOIS,Bomet,Chepalungu,Nyangores,35.30239,-0.85725,Bomet
CHEBORIAN,Bomet,Chepalungu,Kong'asis,35.21291,-0.81839,Bomet
CHEBORIOT,Bomet,Chepalungu,Nyangores,35.325861,-0.820965,Bomet
CHEBOYO,Bomet,Chepalungu,Chebunyo,35.14235,-0.92766,Bomet
CHEBUGON 'B' PRY,Bomet,Chepalungu,Chebunyo,35.12807,-0.93697,Bomet
CHEBUNYO,Bomet,Chepalungu,Chebunyo,35.19255,-0.96446,Bomet
CHELEGET,Bomet,Chepalungu,Chebunyo,35.26866,-0.97569,Bomet
CHELELACH,Bomet,Chepalungu,Siongiroi,35.15723,-0.9014,Bomet
CHELELAIBEI,Bomet,Chepalungu,Chebunyo,35.24184,-0.99988,Bomet
CHEMAETANY,Bomet,Chepalungu,Siongiroi,35.2425,-0.89625,Bomet
CHEMAGEL,Bomet,Chepalungu,Siongiroi,35.23113,-0.93345,Bomet
CHEMENGWA,Bomet,Chepalungu,Sigor,35.33642,-0.96289,Bomet
CHEMISIMGUT,Bomet,Chepalungu,Chebunyo,35.16689,-0.94728,Bomet
CHENIT,Bomet,Chepalungu,Chebunyo,35.18353,-0.94467,Bomet
CHEPKESUI,Bomet,Chepalungu,Nyangores,35.249361,-0.972528,Bomet
CHEPKORGONG,Bomet,Chepalungu,Kong'asis,35.2637,-0.86152,Bomet
CHEPKOSA,Bomet,Chepalungu,Chebunyo,35.24817,-0.95668,Bomet
CHEPNYALILIET,Bomet,Chepalungu,Chebunyo,35.16803,-0.96435,Bomet
CHEPONJIRIA,Bomet,Chepalungu,Chebunyo,35.235441,-0.954444,Bomet
CHEPTAGUM,Bomet,Chepalungu,Nyangores,35.34229,-0.87971,Bomet
CHEPTUIYET NGENDA,Bomet,Chepalungu,Sigor,35.347207,-0.711829,Bomet
CHEPTUONIK,Bomet,Chepalungu,Sigor,35.30721,-0.87066,Bomet
CHEPWOSTUIYET,Bomet,Chepalungu,Siongiroi,35.15849,-0.85314,Bomet
CHESERTON,Bomet,Chepalungu,Kong'asis,35.201978,-0.805468,Bomet
GOITABKALYET,Bomet,Chepalungu,Sigor,35.26993,-0.95541,Bomet
HIGHLAND,Bomet,Chepalungu,Siongiroi,35.170857,-0.850749,Bomet
IMARA CHEBUNYO,Bomet,Chepalungu,Chebunyo,35.194999,-0.96574,Bomet
IMARA SIONGIROI,Bomet,Chepalungu,Siongiroi,35.208821,-0.891187,Bomet
INFORLAN ACADEMY,Bomet,Chepalungu,Siongiroi,35.16617,-0.85135,Bomet
ITEMBE,Bomet,Chepalungu,Nyangores,35.302958,-0.780477,Bomet
KABEMA,Bomet,Chepalungu,Kong'asis,35.1983,-0.8395,Bomet
KABISIMBA,Bomet,Chepalungu,Siongiroi,35.20862,-0.92319,Bomet
KABISOGE,Bomet,Chepalungu,Nyangores,35.313768,-0.800265,Bomet
KABOLWO,Bomet,Chepalungu,Sigor,35.29547,-0.99333,Bomet
KABOSON,Bomet,Chepalungu,Chebunyo,35.25325,-0.9871,Bomet
KAGAWET,Bomet,Chepalungu,Nyangores,35.276931,-0.787056,Bomet
KAMAGET,Bomet,Chepalungu,Chebunyo,35.22038,-0.94659,Bomet
KAMOGIBOI,Bomet,Chepalungu,Chebunyo,35.20599,-0.95194,Bomet
KAMORIR,Bomet,Chepalungu,Kong'asis,35.256168,-0.866912,Bomet
KAMOSIRO,Bomet,Chepalungu,Chebunyo,35.23435,-1.01443,Bomet
KAMOSOS,Bomet,Chepalungu,Chebunyo,35.235229,-1.01665,Bomet
KAMOTYO,Bomet,Chepalungu,Chebunyo,35.22918,-0.98857,Bomet
KAMUNDUGI,Bomet,Chepalungu,Siongiroi,35.25353,-0.89303,Bomet
KAMUSANGA,Bomet,Chepalungu,Chebunyo,35.19401,-0.98652,Bomet
KAPAMBAN,Bomet,Chepalungu,Siongiroi,35.228289,-0.899372,Bomet
KAPINDISIN PRY,Bomet,Chepalungu,Chebunyo,35.173454,-0.93716,Bomet
KAPKEMOI,Bomet,Chepalungu,Nyangores,35.3376,-0.833518,Bomet
KAPKESOSIO,Bomet,Chepalungu,Nyangores,35.31788,-0.84643,Bomet
KAPKULUMBEN,Bomet,Chepalungu,Chebunyo,35.26562,-0.99861,Bomet
KAPKWEN,Bomet,Chepalungu,Nyangores,35.296453,-0.787188,Bomet
KAPLELE,Bomet,Chepalungu,Nyangores,35.298868,-0.814872,Bomet
KAPLEWA,Bomet,Chepalungu,Nyangores,35.34206,-0.89265,Bomet
KAPRORON,Bomet,Chepalungu,Kong'asis,35.28365,-0.82681,Bomet
KAPSABUL,Bomet,Chepalungu,Sigor,35.31457,-0.96399,Bomet
KAPSAIYALEL,Bomet,Chepalungu,Kong'asis,35.18275,-0.8422,Bomet
KAPSINENDET CENTRAL,Bomet,Chepalungu,Siongiroi,35.225218,-0.910173,Bomet
KAPSIO,Bomet,Chepalungu,Nyangores,35.264486,-0.792994,Bomet
KAPTEMBWO LELACH,Bomet,Chepalungu,Chebunyo,35.313572,-0.771269,Bomet
KAPTEMBWO,Bomet,Chepalungu,Nyangores,35.312633,-0.76861,Bomet
KAPTERER,Bomet,Chepalungu,Sigor,35.29494,-0.935081,Bomet
KAPTOROKWO,Bomet,Chepalungu,Chebunyo,35.23764,-0.98092,Bomet
KAPTUMO,Bomet,Chepalungu,Chebunyo,35.211482,-0.994399,Bomet
KAPTWOLO,Bomet,Chepalungu,Siongiroi,35.17031,-0.88619,Bomet
KATARET,Bomet,Chepalungu,Chebunyo,35.15723,-0.9014,Bomet
KELICHEK,Bomet,Chepalungu,Chebunyo,35.148638,-0.953878,Bomet
KERUNDUT,Bomet,Chepalungu,Nyangores,35.33122,-0.8582,Bomet
KESEGUT,Bomet,Chepalungu,Nyangores,35.34756,-0.88163,Bomet
KESOSIO,Bomet,Chepalungu,Kong'asis,35.18564,-0.83133,Bomet
KIBOSON,Bomet,Chepalungu,Kong'asis,35.17407,-0.82018,Bomet
KIMANANGA,Bomet,Chepalungu,Chebunyo,35.18651,-0.85439,Bomet
KIMATISIO,Bomet,Chepalungu,Nyangores,35.284112,-0.80925,Bomet
KIMAYA,Bomet,Chepalungu,Kong'asis,35.26261,-0.87903,Bomet
KIMENDERIT,Bomet,Chepalungu,Nyangores,35.29624,-0.83332,Bomet
KIMUGUL,Bomet,Chepalungu,Siongiroi,35.147538,-0.850645,Bomet
KIPKEIGEI,Bomet,Chepalungu,Sigor,35.28516,-0.94741,Bomet
KIPKELAT,Bomet,Chepalungu,Chebunyo,35.13717,-0.94467,Bomet
KIPKUROR,Bomet,Chepalungu,Kong'asis,35.24486,-0.83448,Bomet
KIPLOMBE,Bomet,Chepalungu,Kong'asis,35.21027,-0.836,Bomet
KIPROROGET,Bomet,Chepalungu,Chebunyo,35.19222,-0.93269,Bomet
KIPSEGON,Bomet,Chepalungu,Nyangores,35.3122,-0.82868,Bomet
KIPSIMBOL CENTRE,Bomet,Chepalungu,Nyangores,35.252435,-0.661674,Bomet
KIPTAGE,Bomet,Chepalungu,Siongiroi,35.18472,-0.86782,Bomet
KIPTENDEN,Bomet,Chepalungu,Siongiroi,35.11414,-0.82638,Bomet
KIPTENDEN CENTRAL,Bomet,Chepalungu,Chebunyo,35.327211,-0.643287,Bomet
KIPTUNOI,Bomet,Chepalungu,Chebunyo,35.224341,-0.859974,Bomet
KIRIBA,Bomet,Chepalungu,Kong'asis,35.26938,-0.81866,Bomet
KISABITA,Bomet,Chepalungu,Nyangores,35.35909,-0.789667,Bomet
KISIET,Bomet,Chepalungu,Sigor,35.253433,-0.937782,Bomet
KOSIA,Bomet,Chepalungu,Sigor,35.27838,-1.00295,Bomet
KYOGONG,Bomet,Chepalungu,Nyangores,35.341416,-0.809924,Bomet
LABOTIET,Bomet,Chepalungu,Chebunyo,35.16004,-0.960551,Bomet
LELAITICH,Bomet,Chepalungu,Sigor,35.32861,-0.94446,Bomet
LELBARAK,Bomet,Chepalungu,Chebunyo,35.1663,-0.9219,Bomet
LELECHONIK,Bomet,Chepalungu,Sigor,35.29519,-0.88344,Bomet
LELECHWET,Bomet,Chepalungu,Nyangores,35.304293,-0.792437,Bomet
LUGUMEK,Bomet,Chepalungu,Sigor,35.30751,-0.98281,Bomet
MAKIMENY,Bomet,Chepalungu,Kong'asis,35.20054,-0.82706,Bomet
MARANGETIT,Bomet,Chepalungu,Sigor,35.30764,-0.93162,Bomet
MASINDONI,Bomet,Chepalungu,Siongiroi,35.1509,-0.88711,Bomet
MATHEW MARITIM,Bomet,Chepalungu,Kong'asis,35.23209,-0.82479,Bomet
MENGWET,Bomet,Chepalungu,Kong'asis,35.22535,-0.84006,Bomet
MUGANGET,Bomet,Chepalungu,Chebunyo,35.214061,-0.967952,Bomet
MWOKYOT,Bomet,Chepalungu,Sigor,35.29917,-0.95203,Bomet
NGENENET,Bomet,Chepalungu,Siongiroi,35.240477,-0.921398,Bomet
NGWONET,Bomet,Chepalungu,Sigor,35.28128,-0.93644,Bomet
NOGIRWET,Bomet,Chepalungu,Chebunyo,35.25037,-1.01298,Bomet
NYAKICHIWA,Bomet,Chepalungu,Sigor,35.34066,-0.92883,Bomet
NYAMBUGO,Bomet,Chepalungu,Nyangores,35.32186,-0.8754,Bomet
NYATEMBE,Bomet,Chepalungu,Kong'asis,35.248454,-0.848564,Bomet
OLESOI,Bomet,Chepalungu,Nyangores,35.30453,-0.89264,Bomet
OREIYET,Bomet,Chepalungu,Sigor,35.26428,-0.92229,Bomet
REBERWET,Bomet,Chepalungu,Siongiroi,35.198252,-0.87154,Bomet
ROBORWO,Bomet,Chepalungu,Chebunyo,35.18163,-0.97431,Bomet
SAGENYA,Bomet,Chepalungu,Nyangores,35.349837,-0.800926,Bomet
SARAMEK,Bomet,Chepalungu,Kong'asis,35.18576,-0.82296,Bomet
SAUNET,Bomet,Chepalungu,Kong'asis,35.17672,-0.79922,Bomet
SEGEMIK,Bomet,Chepalungu,Kong'asis,35.2738,-0.84892,Bomet
SIGOR,Bomet,Chepalungu,Sigor,35.299292,-0.91927,Bomet
SIGOR BOARDING,Bomet,Chepalungu,Sigor,35.29162,-0.91421,Bomet
SINGOIWEK,Bomet,Chepalungu,Kong'asis,35.24924,-0.81983,Bomet
SIONGIROI,Bomet,Chepalungu,Siongiroi,35.21284,-0.89258,Bomet
SOGORORBEI,Bomet,Chepalungu,Chebunyo,35.20952,-0.98203,Bomet
ST.MARY MISMIS,Bomet,Chepalungu,Sigor,35.31422,-0.91721,Bomet
ST.MICHAEL,Bomet,Chepalungu,Nyangores,35.33519,-0.79134,Bomet
ST.PETER KOIYET,Bomet,Chepalungu,Sigor,35.335789,-0.921117,Bomet
SUGUMERGA,Bomet,Chepalungu,Sigor,35.33141,-0.90049,Bomet
TARAKWET,Bomet,Chepalungu,Sigor,35.31728,-0.933365,Bomet
TEBESWET,Bomet,Chepalungu,Nyangores,35.28374,-0.85758,Bomet
TILANGOK,Bomet,Chepalungu,Chebunyo,35.22968,-0.96648,Bomet
TIRIYTA,Bomet,Chepalungu,Nyangores,35.296987,-0.804092,Bomet
TUMOI,Bomet,Chepalungu,Sigor,35.27621,-0.8805,Bomet
UMOJA,Bomet,Chepalungu,Siongiroi,35.18449,-0.86201,Bomet
YOYWANA,Bomet,Chepalungu,Siongiroi,35.249547,-0.884115,Bomet
ANGELIC WINNERS,Bomet,Chepalungu,Kong'asis,35.18827,-0.810502,Bomet
CHEBUNYO CHRISTIAN,Bomet,Chepalungu,Chebunyo,35.19096,-0.96139,Bomet
EDEN NGENENET,Bomet,Chepalungu,Siongiroi,35.241202,-0.923786,Bomet
HOLY FAMILY SIONGIROI,Bomet,Chepalungu,Siongiroi,35.211093,-0.896101,Bomet
KABOSON RIVERVIEW,Bomet,Chepalungu,Chebunyo,35.255862,-0.992681,Bomet
KAPKESOSIO VISION,Bomet,Chepalungu,Nyangores,35.324682,-0.852793,Bomet
KECHEIYAI,Bomet,Chepalungu,Kong'asis,35.385724,-0.762334,Bomet
LABOTIET CHERISTIAN,Bomet,Chepalungu,Chebunyo,35.16004,-0.960551,Bomet
LUGUMEK ANGELS,Bomet,Chepalungu,Sigor,35.308345,-0.985148,Bomet
OLBUTYO SUNRISE,Bomet,Chepalungu,Kong'asis,35.27056,-0.84935,Bomet
ST PETER MONTESSORI,Bomet,Chepalungu,Siongiroi,35.1614,-0.85177,Bomet
ST.LUKE EDUCATION CENTRE,Bomet,Chepalungu,Siongiroi,35.166603,-0.853642,Bomet
TUMAINI,Bomet,Chepalungu,Siongiroi,35.16628,-0.87772,Bomet
ZASA ACADEMY,Bomet,Chepalungu,Kong'asis,35.19863,-0.83867,Bomet
CHEPNYALILIET CENTRAL,Bomet,Chepalungu,Nyangores,35.168612,-0.967124,Bomet
GELENGEI,Bomet,Chepalungu,Kong'asis,35.203739,-0.818939,Bomet
KIPTURGUT,Bomet,Chepalungu,Chebunyo,35.200166,-0.974944,Bomet
METIPSO,Bomet,Chepalungu,Nyangores,35.322504,-0.777393,Bomet
ST. SOFIA KAPCHEPOBKENY,Bomet,Chepalungu,Siongiroi,35.20221,-0.885904,Bomet
BOMET AIRSTRIP ACADEMY,Bomet,Chepalungu,Nyangores,35.318258,-0.778584,Bomet
CHEBARAA academy,Bomet,Chepalungu,Chebunyo,35.272163,-0.900175,Bomet
CHEBUNYO KINGS SCHOOL,Bomet,Chepalungu,Chebunyo,35.191489,-0.968059,Bomet
J. KENDUIYWA MEMORIAL ACADEMY,Bomet,Chepalungu,Nyangores,35.319875,-0.561842,Bomet
KAMAGET ELITES ACADEMY,Bomet,Chepalungu,Chebunyo,35.221587,-0.948973,Bomet
KIMAYA HILLSIDE,Bomet,Chepalungu,Kong'asis,35.262972,-0.881857,Bomet
KOIMIRET SUNSHINE ACADEMY,Bomet,Chepalungu,Kong'asis,35.21337,-0.821503,Bomet
NDAMICHONIK SAWA ACADEMY,Bomet,Chepalungu,Kong'asis,35.192508,-0.806637,Bomet
POWER JUNIOR ACADEMY,Bomet,Chepalungu,Kong'asis,35.197101,-0.849361,Bomet
SIGOR BERUR TALENTS ACADEMY,Bomet,Chepalungu,Sigor,35.28667,-0.9131,Bomet
AREGERIOT,Bomet,Konoin,Embomos,35.36238,-0.61905,Bomet
BEEKAB ARWET,Bomet,Konoin,Kimulot,35.272394,-0.529101,Bomet
BESIOBEI,Bomet,Konoin,Boito,35.306887,-0.55753,Bomet
BOITO,Bomet,Konoin,Boito,35.23732,-0.59187,Bomet
BOSTO,Bomet,Konoin,Embomos,35.38948,-0.63873,Bomet
CHANGANA,Bomet,Konoin,Chepchabas,35.285518,-0.4479,Bomet
CHANGOI,Bomet,Konoin,Chepchabas,35.22093,-0.474889,Bomet
CHEBANGANG,Bomet,Konoin,Kimulot,35.288619,-0.535239,Bomet
CHEBUGEN,Bomet,Konoin,Embomos,35.36836,-0.52289,Bomet
CHEBWONGO,Bomet,Konoin,Kimulot,35.258135,-0.540771,Bomet
CHEIBEI,Bomet,Konoin,Kimulot,35.298093,-0.56702,Bomet
CHEMALAL,Bomet,Konoin,Kimulot,35.208827,-0.519358,Bomet
CHEMAMUL B,Bomet,Konoin,Chepchabas,35.266132,-0.504853,Bomet
CHEMASINGI,Bomet,Konoin,Chepchabas,35.273309,-0.487131,Bomet
CHEMELET,Bomet,Konoin,Boito,35.2146,-0.56209,Bomet
CHEMOGO,Bomet,Konoin,Chepchabas,35.211722,-0.502258,Bomet
CHEPCHABAS,Bomet,Konoin,Chepchabas,35.259897,-0.520146,Bomet
CHEPKOCHUN,Bomet,Konoin,Mogogosiek,35.24629,-0.63684,Bomet
CHEPTABAACH,Bomet,Konoin,Boito,35.23723,-0.56788,Bomet
CHEPTABES,Bomet,Konoin,Chepchabas,35.255156,-0.476634,Bomet
CHEPTALAL,Bomet,Konoin,Embomos,35.37282,-0.60962,Bomet
CHEPTINGTING,Bomet,Konoin,Mogogosiek,35.33472,-0.59055,Bomet
CHONGENWO,Bomet,Konoin,Mogogosiek,35.278639,-0.645243,Bomet
CHORWET,Bomet,Konoin,Mogogosiek,35.26334,-0.63614,Bomet
EMBOMOS,Bomet,Konoin,Embomos,35.36043,-0.53369,Bomet
EMMANUEL A.I.C,Bomet,Konoin,Embomos,35.346459,-0.783712,Bomet
KABIANGEK,Bomet,Konoin,Boito,35.199639,-0.569485,Bomet
KABOMOI,Bomet,Konoin,Embomos,35.312536,-0.648188,Bomet
KAMAGOMON,Bomet,Konoin,Boito,35.320167,-0.57545,Bomet
KAPCHEPKOLE,Bomet,Konoin,Boito,35.2295,-0.58066,Bomet
KAPKEN,Bomet,Konoin,Mogogosiek,35.32364,-0.62349,Bomet
KAPKERONJO,Bomet,Konoin,Kimulot,35.298868,-0.522734,Bomet
KAPKILAIBEI,Bomet,Konoin,Kimulot,35.231479,-0.518754,Bomet
KAPRORET,Bomet,Konoin,Mogogosiek,35.24873,-0.61691,Bomet
KAPSENGERE,Bomet,Konoin,Kimulot,35.28907,-0.526446,Bomet
KAPSIR,Bomet,Konoin,Boito,35.20286,-0.55934,Bomet
KAPTEBENGWET,Bomet,Konoin,Boito,35.311543,-0.571624,Bomet
KAPTEBENGWO,Bomet,Konoin,Boito,35.312655,-0.57453,Bomet
KAPTEMBWO,Bomet,Konoin,Boito,35.24784,-0.58353,Bomet
KAPTIEN,Bomet,Konoin,Boito,35.253833,-0.566751,Bomet
KEBUMBUR,Bomet,Konoin,Boito,35.24349,-0.57532,Bomet
KENYAGORO,Bomet,Konoin,Boito,35.22636,-0.56571,Bomet
KETIK SOMOK,Bomet,Konoin,Mogogosiek,35.289645,-0.630097,Bomet
KIBANJALAL,Bomet,Konoin,Mogogosiek,35.264479,-0.669742,Bomet
KIBITGOI,Bomet,Konoin,Kimulot,35.255395,-0.542976,Bomet
KIMAECH,Bomet,Konoin,Embomos,35.335978,-0.627256,Bomet
KIMARI,Bomet,Konoin,Boito,35.301663,-0.576222,Bomet
KIMARWANDI,Bomet,Konoin,Embomos,35.384751,-0.580525,Bomet
KIMORI AIC,Bomet,Konoin,Mogogosiek,35.27078,-0.62881,Bomet
KIMULOT,Bomet,Konoin,Kimulot,35.255537,-0.533447,Bomet
KIPKELOK,Bomet,Konoin,Mogogosiek,35.25276,-0.597,Bomet
KIPRAISI,Bomet,Konoin,Kimulot,35.21172,-0.54839,Bomet
KIPTENDEN,Bomet,Konoin,Embomos,35.326679,-0.640525,Bomet
KIPTIGET,Bomet,Konoin,Boito,35.275249,-0.55536,Bomet
KIRIMOSE,Bomet,Konoin,Embomos,35.3476,-0.56686,Bomet
KITALA,Bomet,Konoin,Embomos,35.39385,-0.59405,Bomet
KOBOR,Bomet,Konoin,Embomos,35.380933,-0.541239,Bomet
KOITALEL,Bomet,Konoin,Boito,35.267196,-0.571768,Bomet
KOIWA,Bomet,Konoin,Mogogosiek,35.31546,-0.60787,Bomet
KOMIRMIR,Bomet,Konoin,Embomos,35.35548,-0.63861,Bomet
KOROITIK,Bomet,Konoin,Embomos,35.307243,-0.635969,Bomet
KORUMA,Bomet,Konoin,Chepchabas,35.231921,-0.507269,Bomet
KUGERWET,Bomet,Konoin,Embomos,35.36162,-0.64178,Bomet
LEBEKYET,Bomet,Konoin,Mogogosiek,35.292443,-0.612791,Bomet
LELSA,Bomet,Konoin,Chepchabas,35.23484,-0.486216,Bomet
MESWONDO,Bomet,Konoin,Embomos,35.39368,-0.61393,Bomet
MICHIRA,Bomet,Konoin,Embomos,35.304942,-0.58585,Bomet
MOGOGOSIEK T/SHIP,Bomet,Konoin,Mogogosiek,35.27277,-0.61418,Bomet
MOGONJET,Bomet,Konoin,Mogogosiek,35.257782,-0.6504,Bomet
MOROMBO,Bomet,Konoin,Embomos,35.369164,-0.544561,Bomet
MUGENYI,Bomet,Konoin,Kimulot,35.212268,-0.537645,Bomet
MURAMET,Bomet,Konoin,Embomos,35.37416,-0.63559,Bomet
N. CHEBELYON,Bomet,Konoin,Mogogosiek,35.3286,-0.60263,Bomet
NDALELAI,Bomet,Konoin,Embomos,35.384643,-0.615504,Bomet
NGERERIT,Bomet,Konoin,Mogogosiek,35.25421,-0.6069,Bomet
NYOIKENO,Bomet,Konoin,Kimulot,35.29947,-0.534677,Bomet
RERENDET,Bomet,Konoin,Mogogosiek,35.30108,-0.6165,Bomet
RUSEYA,Bomet,Konoin,Mogogosiek,35.272865,-0.656712,Bomet
SANGWA,Bomet,Konoin,Kimulot,35.248109,-0.544441,Bomet
SASETA,Bomet,Konoin,Mogogosiek,35.27853,-0.6244,Bomet
SATIET,Bomet,Konoin,Embomos,35.36568,-0.62845,Bomet
SEANIN,Bomet,Konoin,Mogogosiek,35.34218,-0.61374,Bomet
SINENDOIK,Bomet,Konoin,Embomos,35.296196,-0.645622,Bomet
SIOMO,Bomet,Konoin,Embomos,35.370311,-0.550279,Bomet
SITONIK,Bomet,Konoin,Embomos,35.316708,-0.630914,Bomet
SOTIT,Bomet,Konoin,Embomos,35.36307,-0.5773,Bomet
ST. PETERS BUSORETO,Bomet,Konoin,Boito,35.306173,-0.599123,Bomet
SUGUTEK,Bomet,Konoin,Embomos,35.08401,-0.84802,Bomet
TAARUT,Bomet,Konoin,Embomos,35.361722,-0.555392,Bomet
TABAITA,Bomet,Konoin,Mogogosiek,35.493809,-0.790446,Bomet
TABOINO,Bomet,Konoin,Embomos,35.35768,-0.59662,Bomet
TALALGA,Bomet,Konoin,Embomos,35.37727,-0.55881,Bomet
TENDUET,Bomet,Konoin,Chepchabas,35.288298,-0.49758,Bomet
TEREK,Bomet,Konoin,Embomos,35.345781,-0.641156,Bomet
TUIYOBEI,Bomet,Konoin,Boito,35.12846,-0.77655,Bomet
AIC KIYAP,Bomet,Konoin,Embomos,35.322999,-0.641111,Bomet
AIC SIMOTI ACADEMY,Bomet,Konoin,Mogogosiek,35.300446,-0.618162,Bomet
BETHEL ACAEMY,Bomet,Konoin,Mogogosiek,35.13793,-0.82662,Bomet
CHEMALAL SUNSHINE,Bomet,Konoin,Kimulot,35.225134,-0.519103,Bomet
CHORWET ACADEMY,Bomet,Konoin,Embomos,35.332683,-0.627649,Bomet
KAPKEMOI ACADEMY,Bomet,Konoin,Embomos,35.337203,-0.642572,Bomet
KAPKILAIBEI EBENEZER,Bomet,Konoin,Kimulot,35.244335,-0.527049,Bomet
KAPSET JOLLY,Bomet,Konoin,Kimulot,35.251849,-0.54079,Bomet
KAPTEBENGWET TOWNSHIP,Bomet,Konoin,Boito,35.303793,-0.57493,Bomet
KAPTORORGO FGC,Bomet,Konoin,Boito,35.219226,-0.559451,Bomet
KEBUMBUR ACADEMY,Bomet,Konoin,Boito,35.24008,-0.57746,Bomet
KIMARWANDI PROGRESSIVE,Bomet,Konoin,Embomos,35.38435,-0.583151,Bomet
KIMORI ACADEMY,Bomet,Konoin,Mogogosiek,35.268656,-0.634195,Bomet
KIMUGUL GOOD SHEPHERED,Bomet,Konoin,Kimulot,35.2396,-0.532512,Bomet
KOBEL MISSION,Bomet,Konoin,Embomos,35.367704,-0.615308,Bomet
KOJABEL ACADEMY,Bomet,Konoin,Boito,35.307678,-0.596346,Bomet
MARYHILL ACADEMY,Bomet,Konoin,Mogogosiek,35.202628,-0.579763,Bomet
NYOTA,Bomet,Konoin,Embomos,35.34585,-0.61788,Bomet
SACH KOBOR,Bomet,Konoin,Mogogosiek,35.286268,-0.637734,Bomet
SALAMA ELITES,Bomet,Konoin,Embomos,35.35022,-0.56556,Bomet
SALAMA ELITES B,Bomet,Konoin,Embomos,35.350569,-0.568282,Bomet
SCORESMART,Bomet,Konoin,Mogogosiek,35.274265,-0.660887,Bomet
SIELDAN ACADEMY,Bomet,Konoin,Kimulot,35.2122,-0.537957,Bomet
SINAI ACADEMY,Bomet,Konoin,Mogogosiek,35.33699,-0.61009,Bomet
SOMA ACADEMY,Bomet,Konoin,Mogogosiek,35.25208,-0.59683,Bomet
WINSA,Bomet,Konoin,Embomos,35.36659,-0.62354,Bomet
SUGUTEK,Bomet,Konoin,Kimulot,35.387137,-0.56676,Bomet
CHEPTALAL SHEPHARD,Bomet,Konoin,Embomos,35.373552,-0.612465,Bomet
GLORY ACADEMY,Bomet,Konoin,Chepchabas,35.255455,-0.518193,Bomet
BALEK A,Bomet,Sotik,Kapletundo,35.194912,-0.678195,Bomet
BURGEI,Bomet,Sotik,Rongena/Manaret,35.093965,-0.789665,Bomet
CHANGINA,Bomet,Sotik,Kipsonoi,35.22358,-0.80473,Bomet
CHEBILAT,Bomet,Sotik,Kapletundo,35.232634,-0.619883,Bomet
CHEBIRBELEK,Bomet,Sotik,Kapletundo,35.237083,-0.652701,Bomet
CHEBITET,Bomet,Sotik,Kipsonoi,35.25638,-0.80203,Bomet
CHEBOET,Bomet,Sotik,Kipsonoi,35.16612,-0.77407,Bomet
CHEBOLE,Bomet,Sotik,Kipsonoi,35.21417,-0.74415,Bomet
CHEBONGI,Bomet,Sotik,Chemagel,35.101781,-0.669923,Bomet
CHEBUI,Bomet,Sotik,Kipsonoi,35.1497,-0.80411,Bomet
CHEBUGON,Bomet,Sotik,Rongena/Manaret,35.128688,-0.939418,Bomet
CHEBULU,Bomet,Sotik,Kipsonoi,35.23759,-0.76032,Bomet
CHEMOBEI,Bomet,Sotik,Kapletundo,35.221546,-0.653386,Bomet
CHEMOGOI,Bomet,Sotik,Kipsonoi,35.13698,-0.76957,Bomet
CHEPKALWAL,Bomet,Sotik,Ndanai/Abosi,35.0878,-0.81416,Bomet
CHEPKEBIT,Bomet,Sotik,Rongena/Manaret,35.113653,-0.791599,Bomet
CHEPKEIGEI,Bomet,Sotik,Ndanai/Abosi,35.10221,-0.80773,Bomet
CHEPKOSIOM,Bomet,Sotik,Chemagel,35.134664,-0.689744,Bomet
CHEPTANGULGEI,Bomet,Sotik,Kapletundo,35.188441,-0.650433,Bomet
CHEPTEBE,Bomet,Sotik,Rongena/Manaret,35.110946,-0.734287,Bomet
CHERIBO,Bomet,Sotik,Kapletundo,35.227596,-0.688109,Bomet
CHESAMBAI,Bomet,Sotik,Ndanai/Abosi,35.10028,-0.90211,Bomet
CHESILYOT,Bomet,Sotik,Kapletundo,35.204394,-0.659628,Bomet
CHESILYOT GIRLS,Bomet,Sotik,Kapletundo,35.203352,-0.660553,Bomet
CHILGOTWET,Bomet,Sotik,Rongena/Manaret,35.070476,-0.723761,Bomet
CHINGONDI,Bomet,Sotik,Kipsonoi,35.29735,-0.74606,Bomet
CHOROROITA,Bomet,Sotik,Kipsonoi,35.23469,-0.7381,Bomet
GAA TUIYOBEI,Bomet,Sotik,Rongena/Manaret,35.129221,-0.779311,Bomet
GELEGELE,Bomet,Sotik,Ndanai/Abosi,35.03603,-0.867,Bomet
GORGOR,Bomet,Sotik,Ndanai/Abosi,35.08755,-0.89663,Bomet
KABORUSO KOLUU,Bomet,Sotik,Kapletundo,35.233837,-0.664401,Bomet
KABURGEI,Bomet,Sotik,Kipsonoi,35.124396,-0.815753,Bomet
KAGASIK,Bomet,Sotik,Ndanai/Abosi,35.11346,-0.84273,Bomet
KAMABWAI,Bomet,Sotik,Kipsonoi,35.16862,-0.81044,Bomet
KAMBIRA,Bomet,Sotik,Kapletundo,35.162336,-0.68366,Bomet
KAMEGUNYET,Bomet,Sotik,Ndanai/Abosi,35.12044,-0.86839,Bomet
KAMENES,Bomet,Sotik,Kipsonoi,35.13024,-0.84102,Bomet
KAMESWON,Bomet,Sotik,Kipsonoi,35.18603,-0.78182,Bomet
KAMIRAI,Bomet,Sotik,Chemagel,35.171564,-0.667136,Bomet
KAMUGENO,Bomet,Sotik,Ndanai/Abosi,35.10475,-0.83814,Bomet
KAMUNGEI,Bomet,Sotik,Kapletundo,35.220379,-0.67905,Bomet
KAMUREITO,Bomet,Sotik,Kipsonoi,35.18754,-0.74148,Bomet
KANUSIN,Bomet,Sotik,Kipsonoi,35.21152,-0.77646,Bomet
KAPCHEMIBEI,Bomet,Sotik,Ndanai/Abosi,35.105717,-0.863966,Bomet
KAPCHEPKORO,Bomet,Sotik,Chemagel,35.122221,-0.675846,Bomet
KAPCHEPKOSIOM,Bomet,Sotik,Kipsonoi,35.17361,-0.73893,Bomet
KAPCHERIRE,Bomet,Sotik,Kapletundo,35.21121,-0.691977,Bomet
KAPCHOLYO,Bomet,Sotik,Chemagel,35.136938,-0.667795,Bomet
KAPKELEI,Bomet,Sotik,Kipsonoi,35.13218,-0.78762,Bomet
KAPKESEMBE,Bomet,Sotik,Kapletundo,35.177226,-0.68366,Bomet
KAPKOITIM,Bomet,Sotik,Kapletundo,35.217517,-0.663809,Bomet
KAPKURES,Bomet,Sotik,Kipsonoi,35.14339,-0.75327,Bomet
KAPLELACH,Bomet,Sotik,Ndanai/Abosi,35.06834,-0.85554,Bomet
KAPLETUNDO,Bomet,Sotik,Kapletundo,35.194998,-0.669725,Bomet
KAPLETUNDO CENTRAL,Bomet,Sotik,Kapletundo,35.198901,-0.671333,Bomet
KAPLOMBOI,Bomet,Sotik,Ndanai/Abosi,35.08434,-0.86497,Bomet
KAPLONG BOYS,Bomet,Sotik,Chemagel,35.139197,-0.678819,Bomet
KAPLONG GIRLS,Bomet,Sotik,Chemagel,35.137683,-0.678553,Bomet
KAPMAKITUI,Bomet,Sotik,Kipsonoi,35.1394,-0.80638,Bomet
KAPNYASIMBA,Bomet,Sotik,Kipsonoi,35.175422,-0.78273,Bomet
KAPOLESOBEI,Bomet,Sotik,Ndanai/Abosi,35.18069,-0.8716,Bomet
KAPSANGARU,Bomet,Sotik,Kipsonoi,35.2303,-0.79058,Bomet
KAPSOSURWO,Bomet,Sotik,Ndanai/Abosi,35.12035,-0.92189,Bomet
KAPTAMUITA,Bomet,Sotik,Ndanai/Abosi,35.09103,-0.85938,Bomet
KAPTILOLWO,Bomet,Sotik,Kapletundo,35.345256,-0.69133,Bomet
KAPTULWA,Bomet,Sotik,Kipsonoi,35.180417,-0.768022,Bomet
KELONGET VALLEY,Bomet,Sotik,Ndanai/Abosi,35.02289,-0.88547,Bomet
KENEGUT 'B',Bomet,Sotik,Ndanai/Abosi,35.055249,-0.883707,Bomet
KENENE,Bomet,Sotik,Kapletundo,35.223002,-0.692863,Bomet
KERONJO,Bomet,Sotik,Kapletundo,35.167263,-0.712247,Bomet
KESENGE,Bomet,Sotik,Kapletundo,35.22804,-0.668103,Bomet
KIBIBO,Bomet,Sotik,Ndanai/Abosi,35.09217,-0.88019,Bomet
KIBORI,Bomet,Sotik,Chemagel,35.125384,-0.70503,Bomet
KIMASE,Bomet,Sotik,Chemagel,35.105415,-0.692797,Bomet
KIMAWIT,Bomet,Sotik,Kapletundo,35.186087,-0.702564,Bomet
KIMOLWET JUNIOR ACADEMY,Bomet,Sotik,Kapletundo,35.179789,-0.694442,Bomet
KIMOSO,Bomet,Sotik,Chemagel,35.15963,-0.662392,Bomet
KINYELWET,Bomet,Sotik,Kipsonoi,35.15227,-0.76997,Bomet
KIPAJIT,Bomet,Sotik,Chemagel,35.117457,-0.715825,Bomet
KIPKETII,Bomet,Sotik,Kipsonoi,35.23969,-0.70807,Bomet
KIPNGOSOS,Bomet,Sotik,Rongena/Manaret,35.084474,-0.734698,Bomet
KIPNGOSOS SPECIAL,Bomet,Sotik,Rongena/Manaret,35.086577,-0.737576,Bomet
KIPROBONYIT,Bomet,Sotik,Kapletundo,35.235989,-0.64553,Bomet
KIPSIMBOL,Bomet,Sotik,Ndanai/Abosi,35.05579,-0.85393,Bomet
KIPSINGEI,Bomet,Sotik,Ndanai/Abosi,35.1331,-0.85567,Bomet
KIPSIWON,Bomet,Sotik,Kipsonoi,35.29717,-0.75538,Bomet
KIPSONOI,Bomet,Sotik,Kipsonoi,35.21552,-0.71427,Bomet
KIPTAPSIR,Bomet,Sotik,Chemagel,35.109691,-0.683561,Bomet
KIPTENDEN,Bomet,Sotik,Ndanai/Abosi,35.527583,-0.829975,Bomet
KIPTERGEKYAN,Bomet,Sotik,Kipsonoi,35.24085,-0.75242,Bomet
KIPTORBEI,Bomet,Sotik,Rongena/Manaret,35.098097,-0.777811,Bomet
KIRICHA,Bomet,Sotik,Kipsonoi,35.15458,-0.79129,Bomet
KISABEI,Bomet,Sotik,Rongena/Manaret,35.09139,-0.70532,Bomet
KOIMUGUL,Bomet,Sotik,Kipsonoi,35.147538,-0.850645,Bomet
KOIYET,Bomet,Sotik,Ndanai/Abosi,35.0261,-0.84912,Bomet
KOKWON,Bomet,Sotik,Rongena/Manaret,35.073322,-0.739533,Bomet
KORONGORO,Bomet,Sotik,Ndanai/Abosi,35.06037,-0.86657,Bomet
KURYOT,Bomet,Sotik,Chemagel,35.13857,-0.72567,Bomet
LEKETETIET,Bomet,Sotik,Kipsonoi,35.203313,-0.786411,Bomet
LELDAET,Bomet,Sotik,Kipsonoi,35.26985,-0.73067,Bomet
LELDOK,Bomet,Sotik,Kipsonoi,35.12487,-0.73832,Bomet
LELECHWET,Bomet,Sotik,Kapletundo,35.239279,-0.683621,Bomet
LULUSIK,Bomet,Sotik,Kipsonoi,35.27025,-0.75591,Bomet
MABWAITA,Bomet,Sotik,Rongena/Manaret,35.063333,-0.707241,Bomet
MANARET,Bomet,Sotik,Rongena/Manaret,35.088255,-0.688657,Bomet
MOITA,Bomet,Sotik,Ndanai/Abosi,35.09374,-0.84722,Bomet
MORIKO,Bomet,Sotik,Ndanai/Abosi,35.10122,-0.85296,Bomet
MOSONIK,Bomet,Sotik,Ndanai/Abosi,35.10854,-0.81606,Bomet
MOTIRET,Bomet,Sotik,Kipsonoi,35.13577,-0.81243,Bomet
MUIYWEK,Bomet,Sotik,Kipsonoi,35.29735,-0.74606,Bomet
NGARIET,Bomet,Sotik,Rongena/Manaret,35.1064,-0.72775,Bomet
NGENDALEL,Bomet,Sotik,Kipsonoi,35.149488,-0.739237,Bomet
NGOCHO,Bomet,Sotik,Kipsonoi,35.25557,-0.78728,Bomet
NGURWO,Bomet,Sotik,Ndanai/Abosi,35.07208,-0.87548,Bomet
NJORWET primary,Bomet,Sotik,Kipsonoi,35.21414,-0.79381,Bomet
NYAGAA,Bomet,Sotik,Kipsonoi,35.25444,-0.75209,Bomet
OLDABACH,Bomet,Sotik,Kipsonoi,35.22814,-0.76811,Bomet
OLDEBESI,Bomet,Sotik,Kipsonoi,35.139234,-0.833033,Bomet
RONGENA,Bomet,Sotik,Rongena/Manaret,35.104053,-0.744415,Bomet
ROTIK,Bomet,Sotik,Ndanai/Abosi,35.07681,-0.82432,Bomet
SACHANGWAN,Bomet,Sotik,Kipsonoi,35.28023,-0.76729,Bomet
SARUCHAT,Bomet,Sotik,Rongena/Manaret,35.112793,-0.767931,Bomet
SASITA,Bomet,Sotik,Kipsonoi,35.1614,-0.823852,Bomet
SIGORIAN,Bomet,Sotik,Kipsonoi,35.15787,-0.81056,Bomet
SIRONET,Bomet,Sotik,Kapletundo,35.205022,-0.689187,Bomet
SIRYAT,Bomet,Sotik,Chemagel,35.150017,-0.664364,Bomet
SOIMET,Bomet,Sotik,Chemagel,35.151478,-0.709664,Bomet
SOIMOSIEK,Bomet,Sotik,Ndanai/Abosi,35.12705,-0.82548,Bomet
SOLYOT,Bomet,Sotik,Kipsonoi,35.24621,-0.79371,Bomet
SOMOE,Bomet,Sotik,Ndanai/Abosi,35.07962,-0.83683,Bomet
SOSIK,Bomet,Sotik,Kipsonoi,35.13229,-0.821878,Bomet
SOSUR,Bomet,Sotik,Kipsonoi,35.170153,-0.836997,Bomet
SOTIK PRIMARY,Bomet,Sotik,Chemagel,35.109862,-0.690158,Bomet
SUGURUSIEK,Bomet,Sotik,Kipsonoi,35.19721,-0.72573,Bomet
SUGUTEK,Bomet,Sotik,Ndanai/Abosi,35.084622,-0.850637,Bomet
SUMONI,Bomet,Sotik,Kipsonoi,35.19359,-0.76501,Bomet
TAABOK,Bomet,Sotik,Kipsonoi,35.221569,-0.781922,Bomet
TABARIT,Bomet,Sotik,Ndanai/Abosi,35.0639,-0.89037,Bomet
TAKITECH,Bomet,Sotik,Ndanai/Abosi,35.09635,-0.82858,Bomet
TARAKWA,Bomet,Sotik,Kipsonoi,35.25379,-0.76896,Bomet
TEMBWO,Bomet,Sotik,Rongena/Manaret,35.087369,-0.762166,Bomet
TENDONOK,Bomet,Sotik,Kipsonoi,35.261859,-0.747395,Bomet
TOGOMIN,Bomet,Sotik,Kapletundo,35.21298,-0.633477,Bomet
TUIYOGOK,Bomet,Sotik,Kipsonoi,35.161805,-0.754256,Bomet
TUIYOTICH,Bomet,Sotik,Ndanai/Abosi,35.138582,-0.874546,Bomet
TUMBELYON,Bomet,Sotik,Chemagel,35.157563,-0.671254,Bomet
USWET,Bomet,Sotik,Kapletundo,35.183501,-0.716566,Bomet
YAGANEK,Bomet,Sotik,Chemagel,35.149739,-0.698812,Bomet
BORDERLINE,Bomet,Sotik,Rongena/Manaret,35.092662,-0.803209,Bomet
CHERIBO JUNIOR,Bomet,Sotik,Ndanai/Abosi,35.11324,-0.86226,Bomet
DOWN HILL,Bomet,Sotik,Ndanai/Abosi,35.096584,-0.902649,Bomet
EXCEL ACADEMY,Bomet,Sotik,Kipsonoi,35.32362,-0.61103,Bomet
EXODUS JUNIOR,Bomet,Sotik,Ndanai/Abosi,35.12961,-0.84746,Bomet
FLOWERS JAN,Bomet,Sotik,Kipsonoi,35.160555,-0.736571,Bomet
GALAXY,Bomet,Sotik,Kipsonoi,35.232698,-0.762184,Bomet
KAPLONG JUNIOR,Bomet,Sotik,Chemagel,35.140915,-0.683138,Bomet
KESAILE,Bomet,Sotik,Chemagel,35.302723,-0.801501,Bomet
KIMOLWET PRIMARY,Bomet,Sotik,Kapletundo,35.182084,-0.69149,Bomet
KING OFKINGS,Bomet,Sotik,Kipsonoi,35.15238,-0.768222,Bomet
KOIBEY LELDAET,Bomet,Sotik,Kipsonoi,35.28028,-0.72635,Bomet
MERCY BOARDING,Bomet,Sotik,Chemagel,35.107302,-0.68573,Bomet
MOGOIYWEIT,Bomet,Sotik,Kipsonoi,35.376836,-0.66058,Bomet
MOSOP MISSION,Bomet,Sotik,Kipsonoi,35.20559,-0.74358,Bomet
NDANAI TOWNSHIP,Bomet,Sotik,Ndanai/Abosi,35.0951,-0.83563,Bomet
NEEMA,Bomet,Sotik,Rongena/Manaret,35.354283,-0.903744,Bomet
PRODUCE THE BEST,Bomet,Sotik,Rongena/Manaret,35.101201,-0.769228,Bomet
QUEEN OF ANGELS,Bomet,Sotik,Chemagel,35.140084,-0.667228,Bomet
ROFA GRAMMAR,Bomet,Sotik,Kipsonoi,35.279219,-0.748339,Bomet
ROYAL GATES,Bomet,Sotik,Rongena/Manaret,35.089003,-0.766385,Bomet
SILOT,Bomet,Sotik,Ndanai/Abosi,35.096016,-0.835229,Bomet
SMARTLINK,Bomet,Sotik,Kapletundo,35.235018,-0.652964,Bomet
SOTIN ACADEMY,Bomet,Sotik,Ndanai/Abosi,35.06783,-0.85448,Bomet
ST AUGUSTINE,Bomet,Sotik,Kipsonoi,35.215198,-0.776748,Bomet
ST JOHNS BOSCO SIRONET,Bomet,Sotik,Kapletundo,35.213621,-0.680223,Bomet
ST JOSEPHS,Bomet,Sotik,Chemagel,35.26248,-0.83697,Bomet
ST THERESAS,Bomet,Sotik,Ndanai/Abosi,35.096,-0.84059,Bomet
TEMBWO JUNOR,Bomet,Sotik,Rongena/Manaret,35.092558,-0.772246,Bomet
BILISO RC,Bungoma,Bumula,South Bukusu,34.516424,0.564944,Bungoma
BISUCHE ACK,Bungoma,Bumula,Siboti,34.46676,0.669359,Bungoma
BITOBO RC,Bungoma,Bumula,Kimaeti,34.387302,0.62315,Bungoma
BOSIO RC,Bungoma,Bumula,Siboti,34.480432,0.641455,Bungoma
BUKIRIMO RC PRIMARY,Bungoma,Bumula,Kimaeti,34.38314,0.558093,Bungoma
BUMULA FYM,Bungoma,Bumula,Bumula,34.457371,0.552962,Bungoma
BUNAMBOBI,Bungoma,Bumula,Bumula,34.44054,0.562878,Bungoma
BURANGASI RC,Bungoma,Bumula,South Bukusu,34.452604,0.529626,Bungoma
CHILIBA RC,Bungoma,Bumula,Bumula,34.426668,0.540886,Bungoma
KABUBERO RC,Bungoma,Bumula,Siboti,34.496076,0.658751,Bungoma
KABULA RC,Bungoma,Bumula,Kabula,34.52751,0.490959,Bungoma
ACK KHASOKO,Bungoma,Bumula,Khasoko,34.40509,0.482465,Bungoma
KHASOKO SPECIAL FOR MH,Bungoma,Bumula,Khasoko,34.402344,0.486067,Bungoma
KHASOLO RC,Bungoma,Bumula,Kimaeti,34.427097,0.658408,Bungoma
KHAYO MMK,Bungoma,Bumula,Bumula,34.417422,0.506605,Bungoma
KHELELA AC,Bungoma,Bumula,Bumula,34.406249,0.538651,Bungoma
KIBACHENJE COG,Bungoma,Bumula,South Bukusu,34.498657,0.523306,Bungoma
KIBUKE E R S F,Bungoma,Bumula,West Bukusu,34.481276,0.604752,Bungoma
KIMAETI RC MIXED DAY AND BOARDING,Bungoma,Bumula,Kimaeti,34.407083,0.609463,Bungoma
KIMATUNI RC,Bungoma,Bumula,South Bukusu,34.463591,0.516063,Bungoma
KIMATUNI SA,Bungoma,Bumula,Bumula,34.450129,0.513219,Bungoma
KIMWANGA RC,Bungoma,Bumula,Kimaeti,34.441834,0.59614,Bungoma
KISAWAYI SA PRIMARY,Bungoma,Bumula,Siboti,34.455759,0.674392,Bungoma
KISIOYI ERSF,Bungoma,Bumula,West Bukusu,34.501792,0.636923,Bungoma
KITABISI RC,Bungoma,Bumula,Kimaeti,34.408176,0.644854,Bungoma
KITINGIA SA,Bungoma,Bumula,Kimaeti,34.377039,0.600464,Bungoma
LIBOLINA SPECIAL SCH,Bungoma,Bumula,Kimaeti,34.384895,0.55694,Bungoma
LUBUNDA R C,Bungoma,Bumula,Khasoko,34.430406,0.48071,Bungoma
LUMBOKA RC,Bungoma,Bumula,South Bukusu,34.484998,0.507247,Bungoma
LUNAO NFYM,Bungoma,Bumula,Bumula,34.424314,0.562499,Bungoma
LUNAO RC,Bungoma,Bumula,Bumula,34.41305,0.55918,Bungoma
LWANJA RC,Bungoma,Bumula,Kimaeti,34.45327,0.583821,Bungoma
MACHWELE DEB,Bungoma,Bumula,West Bukusu,34.44585,0.60257,Bungoma
MALINDA RC,Bungoma,Bumula,Kabula,34.502016,0.766885,Bungoma
MANANI S A,Bungoma,Bumula,Siboti,34.485758,0.683564,Bungoma
MASIELO R C,Bungoma,Bumula,Kimaeti,34.436072,0.623638,Bungoma
MASUNO RC,Bungoma,Bumula,Bumula,34.464306,0.488171,Bungoma
MATEKA RC,Bungoma,Bumula,South Bukusu,34.49848,0.534019,Bungoma
MAYANJA R C,Bungoma,Bumula,West Bukusu,34.489078,0.598675,Bungoma
MIKOKWE,Bungoma,Bumula,Bumula,34.393161,0.544271,Bungoma
MILUKI RC,Bungoma,Bumula,Siboti,34.496519,0.64347,Bungoma
MUANDA RC,Bungoma,Bumula,South Bukusu,34.50025,0.559248,Bungoma
MUKUYUNI RC,Bungoma,Bumula,Bumula,34.831026,0.770115,Bungoma
MUKWA RC,Bungoma,Bumula,Siboti,34.493523,0.675281,Bungoma
MULUKOBA RC,Bungoma,Bumula,South Bukusu,34.48204,0.492419,Bungoma
MUNDAA,Bungoma,Bumula,Khasoko,34.398054,0.491454,Bungoma
MUNGORE ACK,Bungoma,Bumula,Khasoko,34.411776,0.489546,Bungoma
MUSAKASA RC,Bungoma,Bumula,Siboti,34.448823,0.644811,Bungoma
MWIRUTI RC,Bungoma,Bumula,Kabula,34.544935,0.503076,Bungoma
MWIYENGA A C K,Bungoma,Bumula,Kimaeti,34.406385,0.575888,Bungoma
MWOMO DEB,Bungoma,Bumula,West Bukusu,34.46077,0.57829,Bungoma
NABUREREYA RC,Bungoma,Bumula,Kabula,34.52377,0.505779,Bungoma
NAKALILA RC,Bungoma,Bumula,Kimaeti,34.427709,0.607766,Bungoma
NAKHWANA R C,Bungoma,Bumula,Kimaeti,34.416729,0.591155,Bungoma
NAMANJE F Y M,Bungoma,Bumula,Siboti,34.481041,0.659637,Bungoma
NAMANZE RC,Bungoma,Bumula,Khasoko,34.390451,0.474817,Bungoma
NAMATOTOA RC,Bungoma,Bumula,Khasoko,34.430783,0.492917,Bungoma
NAMUNINGIE R C,Bungoma,Bumula,West Bukusu,34.490611,0.634549,Bungoma
NAMUSASI ACK,Bungoma,Bumula,Khasoko,34.447231,0.478379,Bungoma
NANDIKA SA,Bungoma,Bumula,Siboti,34.468864,0.633697,Bungoma
NANDINGWA RC,Bungoma,Bumula,South Bukusu,34.479834,0.530665,Bungoma
NANGATA,Bungoma,Bumula,Siboti,34.463649,0.613104,Bungoma
NANGENI FYM,Bungoma,Bumula,West Bukusu,34.46772,0.59594,Bungoma
NAPARA RC,Bungoma,Bumula,Kimaeti,34.421087,0.643834,Bungoma
NASIMBO S A PRIMARY,Bungoma,Bumula,Siboti,34.664327,0.76916,Bungoma
NASYANDA BAHAI,Bungoma,Bumula,Khasoko,34.449762,0.494342,Bungoma
NETIMA R C PRIMARY,Bungoma,Bumula,Siboti,34.468264,0.655945,Bungoma
NGOLI RC,Bungoma,Bumula,West Bukusu,34.504869,0.583927,Bungoma
REMWA RC,Bungoma,Bumula,Kabula,34.504181,0.475628,Bungoma
SANGO RC,Bungoma,Bumula,Siboti,34.428508,0.67048,Bungoma
SIBOTI RC,Bungoma,Bumula,Siboti,34.453934,0.629162,Bungoma
SIHILILA RC,Bungoma,Bumula,Kimaeti,34.38734,0.610936,Bungoma
SIKINGA FYM,Bungoma,Bumula,Bumula,34.43948,0.52747,Bungoma
SIRENDE SA,Bungoma,Bumula,Siboti,34.877418,0.67299,Bungoma
SIYOMBE AC,Bungoma,Bumula,Kimaeti,34.915981,0.735609,Bungoma
ST JUDE NABUYEYWE,Bungoma,Bumula,West Bukusu,34.486443,0.586097,Bungoma
ST JUDE SYOYA RC,Bungoma,Bumula,Kabula,34.503479,0.486053,Bungoma
ST PETERS NAMAIKA RC,Bungoma,Bumula,Bumula,34.420457,0.524356,Bungoma
ST STEPHENS BULOSI RC,Bungoma,Bumula,South Bukusu,34.483714,0.515459,Bungoma
SYEKUMULO RC,Bungoma,Bumula,Bumula,34.47179,0.54352,Bungoma
TABALA  R C,Bungoma,Bumula,Kimaeti,34.43006,0.5822,Bungoma
TABUTI SUDI RC,Bungoma,Bumula,South Bukusu,34.482978,0.552487,Bungoma
TALITIA RC,Bungoma,Bumula,Kabula,34.514451,0.501026,Bungoma
TULUKUYI,Bungoma,Bumula,Kimaeti,34.376539,0.589733,Bungoma
TULUMBA RC,Bungoma,Bumula,South Bukusu,34.492072,0.566923,Bungoma
TUNYA RC,Bungoma,Bumula,West Bukusu,34.492625,0.615116,Bungoma
WAMUMALI RC,Bungoma,Bumula,Kabula,34.535353,0.470601,Bungoma
WAMUNYIRI RC,Bungoma,Bumula,Kabula,34.536206,0.468327,Bungoma
WESIMIKHA SA,Bungoma,Bumula,Bumula,34.397246,0.556853,Bungoma
ARISE AND SHINE,Bungoma,Bumula,Siboti,35.201826,0.841164,Bungoma
CENTRE ACADEMY,Bungoma,Bumula,Bumula,34.466605,0.548213,Bungoma
KIMAETI ACADEMY,Bungoma,Bumula,Kimaeti,34.408478,0.611012,Bungoma
MWANA ACADEMY,Bungoma,Bumula,Kimaeti,34.390719,0.570686,Bungoma
NASYANDA CENTRAL,Bungoma,Bumula,Bumula,34.457016,0.495915,Bungoma
NEW ERA KHASOKO,Bungoma,Bumula,Khasoko,34.400125,0.488203,Bungoma
PROLA ACADEMY,Bungoma,Bumula,Bumula,34.453341,0.493172,Bungoma
ST AQUINAS (MATEKA) PREP,Bungoma,Bumula,South Bukusu,34.501388,0.544553,Bungoma
ST JOHNS ACADEMY KABULA,Bungoma,Bumula,Kabula,34.534826,0.495842,Bungoma
ST STEPHEN,Bungoma,Bumula,Kimaeti,34.484561,0.51251,Bungoma
EPICO JOHNS ACADEMY,Bungoma,Bumula,Kabula,34.521139,0.483569,Bungoma
BUSAKALA FYM,Bungoma,Kabuchai,Kabuchai/ Chwele,34.571182,0.735205,Bungoma
BWAKE RC,Bungoma,Kabuchai,Bwake/Luuya,34.63219,0.67832,Bungoma
CHEBUKAKA BOYS,Bungoma,Kabuchai,Mukuyuni,34.61129,0.75459,Bungoma
CHEBUKAKA GIRLS,Bungoma,Kabuchai,Mukuyuni,34.61118,0.75664,Bungoma
CHEBUKWA DEB,Bungoma,Kabuchai,West Nalondo,34.578103,0.625365,Bungoma
CHEBUNYINYI ACK,Bungoma,Kabuchai,Kabuchai/ Chwele,34.54956,0.69916,Bungoma
CHEKULO BAPTIST,Bungoma,Kabuchai,Bwake/Luuya,34.6543,0.67032,Bungoma
CHEKULO FYM,Bungoma,Kabuchai,Bwake/Luuya,34.6578,0.63992,Bungoma
CHEMWA RC,Bungoma,Kabuchai,West Nalondo,34.56095,0.61859,Bungoma
CHENJENI ERSF,Bungoma,Kabuchai,Mukuyuni,34.62656,0.75374,Bungoma
CHEPSITATI,Bungoma,Kabuchai,Mukuyuni,34.59274,0.77706,Bungoma
KABUCHAI,Bungoma,Kabuchai,West Nalondo,34.566337,0.640137,Bungoma
KASOSI,Bungoma,Kabuchai,West Nalondo,34.60617,0.61761,Bungoma
KHACHONGE RC,Bungoma,Kabuchai,Bwake/Luuya,34.62092,0.69488,Bungoma
KHALABA RC,Bungoma,Kabuchai,West Nalondo,34.54936,0.63792,Bungoma
KIBICHORI,Bungoma,Kabuchai,Kabuchai/ Chwele,34.59247,0.75385,Bungoma
KIBOOCHI,Bungoma,Kabuchai,Bwake/Luuya,34.64041,0.63036,Bungoma
KIMALEWA,Bungoma,Kabuchai,Mukuyuni,34.63983,0.78699,Bungoma
KISIWA,Bungoma,Kabuchai,West Nalondo,34.5523,0.6551,Bungoma
KUYWA,Bungoma,Kabuchai,Mukuyuni,34.64034,0.7755,Bungoma
KUYWA SA SPECIAL FOR M HANDICAPPED,Bungoma,Kabuchai,Mukuyuni,34.64123,0.772254,Bungoma
LUKHOME ERSF,Bungoma,Kabuchai,Mukuyuni,34.60043,0.78569,Bungoma
LUKHUNA ERSF,Bungoma,Kabuchai,Mukuyuni,34.939668,0.803983,Bungoma
LUUYA R C,Bungoma,Kabuchai,Bwake/Luuya,34.63944,0.65212,Bungoma
MABANGA RC,Bungoma,Kabuchai,Bwake/Luuya,34.61333,0.62461,Bungoma
MADISI ERSF,Bungoma,Kabuchai,Mukuyuni,34.6293,0.717035,Bungoma
MAKHONGE,Bungoma,Kabuchai,Mukuyuni,34.57695,0.76506,Bungoma
MAROBO,Bungoma,Kabuchai,Bwake/Luuya,34.61485,0.64426,Bungoma
MATIBO R,Bungoma,Kabuchai,Kabuchai/ Chwele,34.558982,0.746056,Bungoma
MIKAYU FRIENDS,Bungoma,Kabuchai,Bwake/Luuya,34.62708,0.61033,Bungoma
MILEMBE FYM,Bungoma,Kabuchai,Mukuyuni,34.62085,0.78954,Bungoma
MISIRI RC,Bungoma,Kabuchai,Bwake/Luuya,34.58825,0.71964,Bungoma
MUKHWEYA RC,Bungoma,Kabuchai,Kabuchai/ Chwele,34.57511,0.67568,Bungoma
MUSOKHO FYM,Bungoma,Kabuchai,West Nalondo,34.540436,0.65095,Bungoma
NAIRUMBI SA,Bungoma,Kabuchai,Kabuchai/ Chwele,34.565579,0.664473,Bungoma
NAKITUMBA SA,Bungoma,Kabuchai,Kabuchai/ Chwele,34.5613,0.71778,Bungoma
NALONDO CBM,Bungoma,Kabuchai,West Nalondo,34.59552,0.65806,Bungoma
NALONDO DEB,Bungoma,Kabuchai,Kabuchai/ Chwele,34.595402,0.655578,Bungoma
NALONDO R C,Bungoma,Kabuchai,West Nalondo,34.595402,0.655578,Bungoma
NAMAKHELE RC,Bungoma,Kabuchai,Kabuchai/ Chwele,34.59262,0.67799,Bungoma
NAMILAMA,Bungoma,Kabuchai,Kabuchai/ Chwele,34.58113,0.6968,Bungoma
NAMOSI,Bungoma,Kabuchai,West Nalondo,34.543161,0.66189,Bungoma
NASAKA,Bungoma,Kabuchai,Bwake/Luuya,34.65807,0.63992,Bungoma
NGALASIA ACK,Bungoma,Kabuchai,Bwake/Luuya,34.61434,0.63208,Bungoma
PONGOLA,Bungoma,Kabuchai,Kabuchai/ Chwele,34.58409,0.66007,Bungoma
SANANDIKI,Bungoma,Kabuchai,Kabuchai/ Chwele,34.58805,0.73383,Bungoma
SICHEI FYM,Bungoma,Kabuchai,Mukuyuni,34.61043,0.738,Bungoma
SICHEI R C,Bungoma,Kabuchai,Bwake/Luuya,34.59808,0.71823,Bungoma
SIKATA RC,Bungoma,Kabuchai,West Nalondo,34.57052,0.60204,Bungoma
SIKULU,Bungoma,Kabuchai,Mukuyuni,34.65224,0.74828,Bungoma
SIKUSI,Bungoma,Kabuchai,Kabuchai/ Chwele,34.55966,0.7016,Bungoma
SIRARE,Bungoma,Kabuchai,West Nalondo,34.59476,0.63836,Bungoma
SITILA FYM,Bungoma,Kabuchai,West Nalondo,34.60939,0.65174,Bungoma
TEREMI ERSF,Bungoma,Kabuchai,Mukuyuni,34.62224,0.75636,Bungoma
WABUKHONYI,Bungoma,Kabuchai,Kabuchai/ Chwele,34.58116,0.72419,Bungoma
WALUKAYA DEB,Bungoma,Kabuchai,Kabuchai/ Chwele,34.581302,0.710472,Bungoma
BOOKFIELD ACADEMY,Bungoma,Kabuchai,West Nalondo,34.58774,0.65885,Bungoma
BUNGOMA SHINNERS TOP,Bungoma,Kabuchai,Kabuchai/ Chwele,34.574656,0.72074,Bungoma
CHWELE ACA,Bungoma,Kabuchai,Kabuchai/ Chwele,34.57806,0.74014,Bungoma
COM ACADEMY LUUYA,Bungoma,Kabuchai,Bwake/Luuya,34.640447,0.649081,Bungoma
EBENEZER ACADEMY,Bungoma,Kabuchai,Bwake/Luuya,34.789775,0.843804,Bungoma
LWANJA PEFA,Bungoma,Kabuchai,Kabuchai/ Chwele,34.45285,0.58718,Bungoma
MAARIFA,Bungoma,Kabuchai,Kabuchai/ Chwele,34.58016,0.74331,Bungoma
MT OLIVES CHWELE,Bungoma,Kabuchai,Kabuchai/ Chwele,34.578199,0.718824,Bungoma
SUNSET,Bungoma,Kabuchai,Bwake/Luuya,34.64041,0.63262,Bungoma
BARAKI ERSF,Bungoma,Kabuchai,Mukuyuni,34.64434,0.76146,Bungoma
SANANDIKI FRIENDS,Bungoma,Kabuchai,Kabuchai/ Chwele,34.588483,0.731126,Bungoma
SIKATA IMPACT ACADEMY,Bungoma,Kabuchai,Mukuyuni,34.571355,0.599125,Bungoma
ST.PETERS LURENDE,Bungoma,Kabuchai,Bwake/Luuya,34.61218,0.671481,Bungoma
GRACIOUS ACADEMY,Bungoma,Kabuchai,West Nalondo,34.579474,0.739457,Bungoma
BRIDGE INTERNATIONAL ACADEMY CHWELE,Bungoma,Kabuchai,Kabuchai/ Chwele,34.579474,0.739457,Bungoma
VISIONARY ACADEMY,Bungoma,Kabuchai,West Nalondo,34.57789,0.643,Bungoma
NURU VISION ACADEMY,Bungoma,Kabuchai,Bwake/Luuya,34.63963,0.78063,Bungoma
BAKISA D.E.B,Bungoma,Webuye East,Mihuu,34.82742,0.64041,Bungoma
BAKISA SA,Bungoma,Webuye East,Ndivisi,34.8138,0.66001,Bungoma
BITUYU D.E.B,Bungoma,Webuye West,Sitikho,34.965648,0.8314,Bungoma
BOKOLI F Y M,Bungoma,Webuye West,Bokoli,34.663934,0.709746,Bungoma
BOKOLI RC,Bungoma,Webuye West,Bokoli,34.677894,0.695909,Bungoma
BUKUNJANGABO SA,Bungoma,Webuye West,Sitikho,34.727699,0.547104,Bungoma
BUNANGENI FYM,Bungoma,Webuye West,Misikhu,34.687646,0.723829,Bungoma
BUNJOSI FYM,Bungoma,Webuye West,Misikhu,34.712776,0.697092,Bungoma
CHEBINI PEFA PRIMARY,Bungoma,Webuye West,Bokoli,34.68011,0.667615,Bungoma
CHEBOSI S A,Bungoma,Webuye West,Bokoli,34.68973,0.65122,Bungoma
MIENDO FYM,Bungoma,Webuye West,Bokoli,34.68684,0.66668,Bungoma
KAKIMANYI E R S F,Bungoma,Webuye West,Sitikho,34.741419,0.55631,Bungoma
KHALALA RC,Bungoma,Webuye West,Sitikho,34.65462,0.46993,Bungoma
KHALUMULI FYM,Bungoma,Webuye West,Sitikho,34.712883,0.582054,Bungoma
KHAMOTO,Bungoma,Webuye East,Maraka,34.727522,0.573366,Bungoma
KITUNI FYM,Bungoma,Webuye West,Misikhu,34.728618,0.666183,Bungoma
KUYWA FYM PRIMARY,Bungoma,Webuye West,Sitikho,34.684239,0.508303,Bungoma
KWENA SDA,Bungoma,Webuye East,Ndivisi,34.81586,0.73998,Bungoma
LUGULU DAY,Bungoma,Webuye West,Misikhu,34.75194,0.66659,Bungoma
LUGULU MIXED BOARDING/DAY,Bungoma,Webuye East,Maraka,34.75639,0.659376,Bungoma
LUGUSI FYM,Bungoma,Webuye East,Mihuu,34.80601,0.65107,Bungoma
LUTACHO FYM MIXED DAY AND BOARDING,Bungoma,Webuye East,Ndivisi,34.815357,0.672557,Bungoma
LUTASO RC,Bungoma,Webuye West,Bokoli,34.692118,0.633873,Bungoma
MAGEMO FYM PRIMARY SCHOOL,Bungoma,Webuye East,Ndivisi,34.77207,0.69203,Bungoma
MAHANGA PEFA,Bungoma,Webuye East,Mihuu,34.791877,0.610717,Bungoma
MAKEMO RC,Bungoma,Webuye East,Ndivisi,34.77823,0.71893,Bungoma
KAKIMANYI SDA PRIMARY,Bungoma,Webuye East,Maraka,34.742293,0.553269,Bungoma
MAKUSELWA FYM,Bungoma,Webuye East,Ndivisi,34.78493,0.72623,Bungoma
MALAHA FYM,Bungoma,Webuye West,Matulo,34.740888,0.635933,Bungoma
MALOHO RC,Bungoma,Webuye West,Bokoli,34.64208,0.70857,Bungoma
MALOMONYE FYM,Bungoma,Webuye East,Ndivisi,34.80169,0.69291,Bungoma
MANANI RC,Bungoma,Webuye West,Misikhu,34.710926,0.719521,Bungoma
MANG'ANA FYM,Bungoma,Webuye West,Sitikho,34.69045,0.520783,Bungoma
MARAKA PEFA,Bungoma,Webuye East,Maraka,34.776061,0.579405,Bungoma
MASINDU FYM,Bungoma,Webuye East,Mihuu,34.81652,0.63213,Bungoma
MATISI S A,Bungoma,Webuye West,Bokoli,34.69507,0.622984,Bungoma
MATULO FRIENDS,Bungoma,Webuye West,Matulo,34.726354,0.60706,Bungoma
MATULO RC,Bungoma,Webuye West,Matulo,34.738574,0.600889,Bungoma
MIHUU FYM,Bungoma,Webuye East,Mihuu,34.79102,0.63068,Bungoma
MIKUVA FYM,Bungoma,Webuye East,Mihuu,34.786162,0.647719,Bungoma
MILANI FYM,Bungoma,Webuye West,Bokoli,34.644597,0.727641,Bungoma
MILO FYM,Bungoma,Webuye West,Sitikho,34.720825,0.533038,Bungoma
MISEMWA FYM,Bungoma,Webuye East,Ndivisi,34.806181,0.743893,Bungoma
MISIKHU FYM,Bungoma,Webuye West,Misikhu,34.721243,0.710095,Bungoma
MISIKHU GIRLS,Bungoma,Webuye East,Ndivisi,34.75471,0.72047,Bungoma
MISIKHU RC BOYS,Bungoma,Webuye West,Misikhu,34.753511,0.718977,Bungoma
MISIMO FYM,Bungoma,Webuye East,Mihuu,34.82688,0.66358,Bungoma
MITUKUYU FYM,Bungoma,Webuye East,Mihuu,34.78549,0.67295,Bungoma
MOYOKWE,Bungoma,Webuye West,Bokoli,34.692497,0.687576,Bungoma
MUJI FYM,Bungoma,Webuye East,Maraka,34.744822,0.58784,Bungoma
MUNGAKHA ACK,Bungoma,Webuye West,Misikhu,34.701614,0.733239,Bungoma
MURUMBA RC,Bungoma,Webuye East,Mihuu,34.77687,0.6223,Bungoma
MUTIKE DEB,Bungoma,Webuye West,Sitikho,34.642756,0.460529,Bungoma
MWEMBULA DEB,Bungoma,Webuye West,Sitikho,34.67563,0.48956,Bungoma
NABUYOLE PEFA,Bungoma,Webuye East,Maraka,34.795449,0.593845,Bungoma
NAMARAMBI FYM,Bungoma,Webuye East,Ndivisi,34.767064,0.727316,Bungoma
NAMAWANGA FYM,Bungoma,Webuye West,Bokoli,34.59954,0.50601,Bungoma
NAMBALAYI DEB,Bungoma,Webuye West,Sitikho,34.714216,0.523563,Bungoma
NAMBAMI FYM,Bungoma,Webuye West,Misikhu,34.739651,0.694487,Bungoma
NAMILIMO KETC PRIMARY,Bungoma,Webuye West,Bokoli,34.674374,0.707108,Bungoma
NDIVISI FYM PRIMARY,Bungoma,Webuye East,Ndivisi,34.81268,0.71532,Bungoma
NDURUSIA PEFA PRIMARY,Bungoma,Webuye West,Bokoli,34.704572,0.676278,Bungoma
NGACHI SA,Bungoma,Webuye West,Sitikho,34.709638,0.561774,Bungoma
NGWELO FYM PRIMARY,Bungoma,Webuye West,Sitikho,34.697301,0.594132,Bungoma
NZOIA RC,Bungoma,Webuye East,Maraka,34.756112,0.56566,Bungoma
SANGO DEB,Bungoma,Webuye East,Maraka,34.642508,0.800321,Bungoma
SAWA PCU,Bungoma,Webuye West,Bokoli,34.64917,0.70826,Bungoma
SIKIMBILO RC,Bungoma,Webuye West,Bokoli,34.66042,0.721298,Bungoma
SILUNGAI FYM,Bungoma,Webuye East,Ndivisi,34.80079,0.72009,Bungoma
SINOKO FYM,Bungoma,Webuye East,Ndivisi,34.78699,0.70402,Bungoma
SIPALA fym,Bungoma,Webuye East,Mihuu,34.76429,0.64411,Bungoma
SIRENDE AC,Bungoma,Webuye West,Misikhu,34.700026,0.722785,Bungoma
SIRISIA BOK FYM,Bungoma,Webuye West,Misikhu,34.724501,0.681743,Bungoma
SITIKHO ERSF,Bungoma,Webuye West,Sitikho,34.667,0.47769,Bungoma
ST ANTONY FOR THE DEAF,Bungoma,Webuye West,Matulo,34.770425,0.603587,Bungoma
ST JOHN'S SAVANA,Bungoma,Webuye East,Mihuu,34.74996,0.69118,Bungoma
ST JOSEPHS RC,Bungoma,Webuye East,Maraka,34.769078,0.598415,Bungoma
ST TERESAS SPECIAL FOR M H,Bungoma,Webuye East,Maraka,34.765346,0.592047,Bungoma
WABUKHONYI FYM,Bungoma,Webuye East,Ndivisi,34.7852,0.7534,Bungoma
WANDABWA FYM,Bungoma,Webuye East,Ndivisi,34.82042,0.69702,Bungoma
WEBUYE ACK,Bungoma,Webuye East,Maraka,34.782549,0.599044,Bungoma
WEBUYE DEB,Bungoma,Webuye West,Matulo,34.768498,0.610981,Bungoma
WEBUYE PAG,Bungoma,Webuye East,Maraka,34.777159,0.59922,Bungoma
WEBUYE SA,Bungoma,Webuye West,Matulo,34.764475,0.612149,Bungoma
WENYILA ERSF,Bungoma,Webuye West,Matulo,34.737252,0.649445,Bungoma
YALUSI FYM,Bungoma,Webuye West,Sitikho,34.705277,0.546609,Bungoma
ADVENT JUNIOR,Bungoma,Webuye East,Ndivisi,34.758542,0.713468,Bungoma
ELITE ACADEMY,Bungoma,Webuye West,Matulo,34.716723,0.774223,Bungoma
MERCY JUNIOR KHALUMULI,Bungoma,Webuye West,Sitikho,34.720816,0.590687,Bungoma
PENTAGON ACADEMY,Bungoma,Webuye East,Ndivisi,34.75519,0.71696,Bungoma
SINOKO JUBILEE ACADEMY,Bungoma,Webuye East,Ndivisi,34.558377,0.569525,Bungoma
ST ELIZABETH FAITH,Bungoma,Webuye East,Ndivisi,34.662064,0.715196,Bungoma
MALOMONYE FRIENDS ACADEMY,Bungoma,Webuye East,Ndivisi,34.80169,0.69291,Bungoma
PERFECT SEED ACADEMY,Bungoma,Webuye East,Ndivisi,34.76451,0.70364,Bungoma
PRIME EDUCATION CENTRE,Bungoma,Webuye East,Ndivisi,34.759931,0.825604,Bungoma
BILIBILI FYM,Bungoma,Tongaren,Milima,34.807838,0.78125,Bungoma
BINYENYA RC,Bungoma,Tongaren,Tongaren,34.987088,0.820782,Bungoma
BITUYU RC,Bungoma,Tongaren,Tongaren,34.965212,0.831322,Bungoma
BUNAMBO FRIENDS,Bungoma,Tongaren,Tongaren,34.929213,0.82215,Bungoma
CHUMA PAG,Bungoma,Tongaren,Soysambu/ Mitua,35.033838,0.793315,Bungoma
KAKAMWE RC,Bungoma,Tongaren,Tongaren,34.976837,0.783034,Bungoma
KANANACHI FYM,Bungoma,Tongaren,Soysambu/ Mitua,35.056804,0.777642,Bungoma
KAPCHONGE DEB,Bungoma,Tongaren,Soysambu/ Mitua,35.017144,0.81331,Bungoma
KARIMA,Bungoma,Tongaren,Mbakalo,34.855446,0.727556,Bungoma
KEWA DEB,Bungoma,Tongaren,Naitiri/ Kabuyefwe,34.906262,0.762835,Bungoma
KIBISI FYM,Bungoma,Tongaren,Mbakalo,34.863304,0.699204,Bungoma
KIMININI FYM,Bungoma,Tongaren,Ndalu,34.977308,0.857172,Bungoma
LUKHOKHWE FYM,Bungoma,Tongaren,Milima,34.83908,0.794883,Bungoma
LUNAO DEB,Bungoma,Tongaren,Soysambu/ Mitua,34.424937,0.559979,Bungoma
LUNGAI,Bungoma,Tongaren,Naitiri/ Kabuyefwe,34.901711,0.779504,Bungoma
LUNYU D E B PRIMARY,Bungoma,Tongaren,Mbakalo,34.845679,0.674691,Bungoma
LUUYA D E B,Bungoma,Tongaren,Milima,34.849826,0.747359,Bungoma
MACHAKHA DEB,Bungoma,Tongaren,Tongaren,34.98493,0.792454,Bungoma
MAINA P A G PRIMARY,Bungoma,Tongaren,Tongaren,34.96806,0.773112,Bungoma
MAKHANGA SA,Bungoma,Tongaren,Naitiri/ Kabuyefwe,34.88737,0.795014,Bungoma
MAKHONGE DEB,Bungoma,Tongaren,Naitiri/ Kabuyefwe,34.576718,0.762167,Bungoma
MAKOLOLWE PAG,Bungoma,Tongaren,Tongaren,35.000338,0.810431,Bungoma
MAKUNGA,Bungoma,Tongaren,Mbakalo,34.835856,0.733836,Bungoma
MANYASA FYM,Bungoma,Tongaren,Tongaren,34.922644,0.796123,Bungoma
MAPERA D E B,Bungoma,Tongaren,Ndalu,34.961294,0.841108,Bungoma
MARESI FYM,Bungoma,Tongaren,Soysambu/ Mitua,35.03767,0.769127,Bungoma
MATISI PAG,Bungoma,Tongaren,Soysambu/ Mitua,35.047985,0.785409,Bungoma
MBAKALO ACK,Bungoma,Tongaren,Mbakalo,34.874122,0.733669,Bungoma
MBAKALO DEB,Bungoma,Tongaren,Mbakalo,34.87845,0.729263,Bungoma
MILELE FRIENDS,Bungoma,Tongaren,Tongaren,34.989666,0.796265,Bungoma
MITUA FYM,Bungoma,Tongaren,Soysambu/ Mitua,35.044395,0.787216,Bungoma
MUKUYUNI FYM,Bungoma,Tongaren,Milima,34.832036,0.769047,Bungoma
MULIRO DEB,Bungoma,Tongaren,Ndalu,34.995267,0.877916,Bungoma
MUSANGURA FRIENDSS,Bungoma,Tongaren,Ndalu,34.994923,0.861245,Bungoma
MUSEMBE FYM,Bungoma,Tongaren,Mbakalo,34.838993,0.695174,Bungoma
MUSEMBE PAG,Bungoma,Tongaren,Ndalu,35.007338,0.87945,Bungoma
MWAMBU PAG,Bungoma,Tongaren,Soysambu/ Mitua,34.977308,0.857172,Bungoma
MWIKHUPO RC,Bungoma,Tongaren,Soysambu/ Mitua,35.021647,0.754321,Bungoma
NABISWA FYM,Bungoma,Tongaren,Mbakalo,34.850862,0.708147,Bungoma
NAITIRI FYM,Bungoma,Tongaren,Naitiri/ Kabuyefwe,34.913655,0.757801,Bungoma
NAITIRI RC,Bungoma,Tongaren,Mbakalo,34.892187,0.757491,Bungoma
NAKOBA FYM,Bungoma,Tongaren,Naitiri/ Kabuyefwe,34.912297,0.813323,Bungoma
NAMATORE FPF,Bungoma,Tongaren,Soysambu/ Mitua,35.007319,0.752944,Bungoma
NAMAWANGA RGC,Bungoma,Tongaren,Mbakalo,34.881432,0.703496,Bungoma
NAMBOKO RC,Bungoma,Tongaren,Milima,34.875161,0.752751,Bungoma
NAMUNYIRI RCEA,Bungoma,Tongaren,Soysambu/ Mitua,34.997467,0.769688,Bungoma
NARATI RC,Bungoma,Tongaren,Soysambu/ Mitua,35.029712,0.781712,Bungoma
NDALU RC,Bungoma,Tongaren,Ndalu,34.994263,0.850004,Bungoma
NYANGE DEB,Bungoma,Tongaren,Naitiri/ Kabuyefwe,34.896324,0.736249,Bungoma
NYANGE PAG,Bungoma,Tongaren,Soysambu/ Mitua,34.896985,0.733596,Bungoma
NZOIA FYM,Bungoma,Tongaren,Ndalu,35.006468,0.837851,Bungoma
PWANI FYM,Bungoma,Tongaren,Naitiri/ Kabuyefwe,34.903324,0.702656,Bungoma
SANGO PAG,Bungoma,Tongaren,Soysambu/ Mitua,35.032767,0.776722,Bungoma
SANGO SA,Bungoma,Tongaren,Naitiri/ Kabuyefwe,34.905628,0.835601,Bungoma
SAWA DEB,Bungoma,Tongaren,Ndalu,34.978526,0.83426,Bungoma
SHIKUKU FYM,Bungoma,Tongaren,Ndalu,34.931582,0.833772,Bungoma
SIANGALAMWE RC,Bungoma,Tongaren,Soysambu/ Mitua,35.009728,0.786652,Bungoma
SIRAKARU SA,Bungoma,Tongaren,Naitiri/ Kabuyefwe,34.896554,0.724494,Bungoma
SIRENDE RC,Bungoma,Tongaren,Naitiri/ Kabuyefwe,34.895124,0.816748,Bungoma
SIUMBWA RC,Bungoma,Tongaren,Naitiri/ Kabuyefwe,34.917064,0.732745,Bungoma
SOYSAMBU DEB,Bungoma,Tongaren,Soysambu/ Mitua,35.018257,0.780162,Bungoma
ST MARYS MABUSI RC MIXED,Bungoma,Tongaren,Tongaren,34.944227,0.763246,Bungoma
TABANI FYM,Bungoma,Tongaren,Ndalu,34.944119,0.853373,Bungoma
TABANI RC,Bungoma,Tongaren,Ndalu,34.950677,0.838972,Bungoma
TONGAREN,Bungoma,Tongaren,Tongaren,34.964098,0.784036,Bungoma
NABING'ENG'E FYM,Bungoma,Tongaren,Milima,34.871208,0.764592,Bungoma
FAITH ACADEMY,Bungoma,Tongaren,Ndalu,35.004693,0.850225,Bungoma
NEW TRIANGLE ACADEMY,Bungoma,Tongaren,Soysambu/ Mitua,35.034009,0.788745,Bungoma
BUEMA RC,Bungoma,Kanduyi,Marakaru/Tuuti,34.51619,0.59518,Bungoma
BUKANANACHI FYM,Bungoma,Kanduyi,Marakaru/Tuuti,34.51732,0.64357,Bungoma
BULONDO RC,Bungoma,Kanduyi,West Sang'alo,34.57602,0.47345,Bungoma
BUNGOMA DEB,Bungoma,Kanduyi,Township,34.5555,0.57416,Bungoma
BUNGOMA MUSLIM,Bungoma,Kanduyi,Musikoma,34.55273,0.55474,Bungoma
CENTRAL BAPTIST,Bungoma,Kanduyi,Township,34.55604,0.56955,Bungoma
CHEMCHE ACK,Bungoma,Kanduyi,Bukembe West,34.59059,0.57558,Bungoma
CHENGWALI SA,Bungoma,Kanduyi,Bukembe West,34.62099,0.59821,Bungoma
FUCHANI FRIENDS,Bungoma,Kanduyi,East Sang'alo,34.630856,0.469721,Bungoma
KAKICHUMA RC,Bungoma,Kanduyi,Marakaru/Tuuti,34.53465,0.69371,Bungoma
KAMBA RC,Bungoma,Kanduyi,West Sang'alo,34.59047,0.4885,Bungoma
KANDUYI DEB,Bungoma,Kanduyi,Khalaba,34.55704,0.5874,Bungoma
KHAKULA RCEA,Bungoma,Kanduyi,East Sang'alo,34.62022,0.50935,Bungoma
KHAOYA ERSF,Bungoma,Kanduyi,Bukembe West,34.57592,0.56829,Bungoma
KHAWELI RC,Bungoma,Kanduyi,East Sang'alo,34.64497,0.52435,Bungoma
KIBABII MIXED,Bungoma,Kanduyi,Marakaru/Tuuti,34.52463,0.62375,Bungoma
KIKWECHI ACK,Bungoma,Kanduyi,Marakaru/Tuuti,34.51425,0.68195,Bungoma
KIMUGUI FYM,Bungoma,Kanduyi,East Sang'alo,34.63302,0.49429,Bungoma
KIMUKUNG'I RC,Bungoma,Kanduyi,Marakaru/Tuuti,34.54594,0.6817,Bungoma
KISULINI SA,Bungoma,Kanduyi,Bukembe West,34.61682,0.55847,Bungoma
KITALE FYM,Bungoma,Kanduyi,Bukembe West,34.62621,0.57789,Bungoma
KITINDA RC,Bungoma,Kanduyi,West Sang'alo,34.56807,0.53323,Bungoma
KOMBO,Bungoma,Kanduyi,Bukembe West,34.661417,0.612084,Bungoma
KONGOLI RC,Bungoma,Kanduyi,Bukembe West,34.65124,0.56691,Bungoma
LUTUNGU RC,Bungoma,Kanduyi,East Sang'alo,34.63121,0.5408,Bungoma
LUYEKYE RC,Bungoma,Kanduyi,West Sang'alo,34.57805,0.51216,Bungoma
LWANDA FYM,Bungoma,Kanduyi,West Sang'alo,34.602321,0.54311,Bungoma
MABUUSI RCEA,Bungoma,Kanduyi,East Sang'alo,34.63671,0.51736,Bungoma
MAKUTANO SA,Bungoma,Kanduyi,Marakaru/Tuuti,34.54352,0.60501,Bungoma
MARAKARU ACK,Bungoma,Kanduyi,Marakaru/Tuuti,34.52781,0.66669,Bungoma
MATUMBUFU BAPTIST,Bungoma,Kanduyi,Bukembe West,34.59742,0.56264,Bungoma
MECHIMERU SA,Bungoma,Kanduyi,East Sang'alo,34.65091,0.50508,Bungoma
MISANGA FYM,Bungoma,Kanduyi,Bukembe East,34.80486,0.74803,Bungoma
MOI DEB,Bungoma,Kanduyi,Township,34.55882,0.56511,Bungoma
MUFULE FYM,Bungoma,Kanduyi,East Sang'alo,34.64847,0.49343,Bungoma
MUIKHUPO BAPTIST,Bungoma,Kanduyi,East Sang'alo,34.58526,0.43887,Bungoma
MUKHAWELI MMK,Bungoma,Kanduyi,Khalaba,34.56479,0.563352,Bungoma
MUNGETI RC,Bungoma,Kanduyi,Marakaru/Tuuti,34.5163,0.6545,Bungoma
MUPELI DEB,Bungoma,Kanduyi,Township,34.55801,0.56002,Bungoma
MUSIKOMA RC,Bungoma,Kanduyi,Musikoma,34.54977,0.53685,Bungoma
MUYAYI RC,Bungoma,Kanduyi,Bukembe West,34.58135,0.58654,Bungoma
MWIBALE RC,Bungoma,Kanduyi,East Sang'alo,34.615639,0.478083,Bungoma
NABICHAKHA FYM,Bungoma,Kanduyi,East Sang'alo,34.59993,0.45602,Bungoma
NABUTOLA FYM,Bungoma,Kanduyi,East Sang'alo,34.64414,0.48278,Bungoma
NALUTIRI SA,Bungoma,Kanduyi,Bukembe West,34.59923,0.59473,Bungoma
NAMAANGA FYM,Bungoma,Kanduyi,West Sang'alo,34.59954,0.50601,Bungoma
NAMAMUKA RC PRIMARY,Bungoma,Kanduyi,Township,34.54967,0.5123,Bungoma
NAMASANDA RC,Bungoma,Kanduyi,Musikoma,34.533434,0.522814,Bungoma
NAMIKELO RC,Bungoma,Kanduyi,Marakaru/Tuuti,34.52922,0.64051,Bungoma
NAMWACHA FYM,Bungoma,Kanduyi,West Sang'alo,34.577571,0.488888,Bungoma
NDENGELWA RC,Bungoma,Kanduyi,Bukembe West,34.59229,0.59159,Bungoma
NZOIA DOROFU TOWNSHIP,Bungoma,Kanduyi,East Sang'alo,34.61304,0.45631,Bungoma
